[{"ID":"109","Name":"Techcombank Nguy\u1ec5n V\u0103n Linh","Phone":"(028) 5412 3366","Fax":"(028) 5412 3369","LongLat":"10.7302691,106.7036122","ProvinceID":"33","DistrictID":"69","Address":"15-17 Nguy\u00ea\u0303n V\u0103n Linh, P. T\u00e2n Phong, Qu\u1eadn 7, H\u1ed3 Ch\u00ed Minh","BankName":"Techcombank","BankLogo":"\/images\/bank\/techcombank.png"},{"ID":"111","Name":"Techcombank Ph\u00fa M\u1ef9 H\u01b0ng","Phone":"(028) 5412 0001","Fax":"(028) 5412 0538","LongLat":"10.7283828,106.7203211","ProvinceID":"33","DistrictID":"69","Address":"To\u00e0 nh\u00e0 Capital Towner, S\u1ed1 6 Nguy\u1ec5n Kh\u1eafc Vi\u1ec7n, qu\u1eadn 7, TP H\u1ed3 Ch\u00ed Minh","BankName":"Techcombank","BankLogo":"\/images\/bank\/techcombank.png"},{"ID":"136","Name":"Techcombank B\u00ecnh \u0110\u0103ng","Phone":"(028) 5430 8555","Fax":"(028) 5430 8777","LongLat":"10.736146,106.6573817","ProvinceID":"33","DistrictID":"70","Address":"338-340 Li\u00ean T\u1ec9nh 5, ph\u01b0\u1eddng 6, qu\u1eadn 8, TP H\u1ed3 Ch\u00ed Minh","BankName":"Techcombank","BankLogo":"\/images\/bank\/techcombank.png"},{"ID":"143","Name":"Techcombank An L\u1ea1c","Phone":"(028) 3636 4859","Fax":"(028) 3636 4854","LongLat":"10.7652581,106.6038535","ProvinceID":"33","DistrictID":"72","Address":"S\u1ed1 104 -106 \u0110\u01b0\u1eddng 17A, B\u00ecnh T\u00e2n, H\u1ed3 Ch\u00ed Minh","BankName":"Techcombank","BankLogo":"\/images\/bank\/techcombank.png"},{"ID":"164","Name":"Techcombank T\u00e2n Qui","Phone":"(028) 37715888","Fax":"(028) 37711099","LongLat":"10.7386915,106.7123981","ProvinceID":"33","DistrictID":"69","Address":"340 Nguy\u1ec5n Th\u1ecb Th\u1eadp, P T\u00e2n Qui, Qu\u1eadn 7, TP HCM","BankName":"Techcombank","BankLogo":"\/images\/bank\/techcombank.png"},{"ID":"186","Name":"Techcombank Phong Ph\u00fa","Phone":"(028) 5430 4410","Fax":"(028) 5430 4412","LongLat":"10.7380767,106.6705952","ProvinceID":"33","DistrictID":"70","Address":"314 A \u0110\u01b0\u1eddng Ch\u00e1nh H\u01b0ng, ph\u01b0\u1eddng 5, qu\u1eadn 8, TP H\u1ed3 Ch\u00ed Minh","BankName":"Techcombank","BankLogo":"\/images\/bank\/techcombank.png"},{"ID":"195","Name":"Techcombank B\u00ecnh Ph\u00fa","Phone":"(028) 3755 3291","Fax":"(028) 3755 3292","LongLat":"10.7463866,106.6368825","ProvinceID":"33","DistrictID":"68","Address":"137-139 Ch\u1ee3 L\u1edbn, khu d\u00e2n c\u01b0 B\u00ecnh Ph\u00fa, Ph\u01b0\u1eddng 11, Qu\u1eadn 6, H\u1ed3 Ch\u00ed Minh","BankName":"Techcombank","BankLogo":"\/images\/bank\/techcombank.png"},{"ID":"212","Name":"Techcombank B\u00ecnh Ti\u00ean","Phone":"(028) 3967 6474","Fax":"(028) 3967 6475","LongLat":"10.7458296,106.6431397","ProvinceID":"33","DistrictID":"68","Address":"234 - 234\/2 - 234\/4 Pha\u0323m Phu\u0301 Th\u01b0\u0301, Qu\u1eadn 6, H\u1ed3 Ch\u00ed Minh","BankName":"Techcombank","BankLogo":"\/images\/bank\/techcombank.png"},{"ID":"254","Name":"Techcombank T\u00e2n Thu\u1eadn","Phone":"(028) 5433 6277","Fax":"(028) 5433 6266","LongLat":"10.7463663,106.7290619","ProvinceID":"33","DistrictID":"69","Address":"340 Hu\u1ef3nh T\u1ea5n Ph\u00e1t, Ph\u01b0\u1eddng B\u00ecnh Thu\u1eadn, Qu\u1eadn 7","BankName":"Techcombank","BankLogo":"\/images\/bank\/techcombank.png"},{"ID":"265","Name":"Techcombank Ch\u1ee3 L\u1edbn","Phone":"(028) 3960 3949","Fax":"(028) 3960 3948","LongLat":"10.7482618,106.6359094","ProvinceID":"33","DistrictID":"68","Address":"78-80-82 H\u1eadu Giang, Qu\u1eadn 6, TP H\u1ed3 Ch\u00ed Minh","BankName":"Techcombank","BankLogo":"\/images\/bank\/techcombank.png"},{"ID":"285","Name":"Techcombank B\u00ecnh Tr\u1ecb \u0110\u00f4ng","Phone":"(028) 3817 2010","Fax":"(028) 3817 2011","LongLat":"10.7501319,106.6152141","ProvinceID":"33","DistrictID":"72","Address":"S\u1ed1 238 V\u00e0nh \u0111ai Trong, KP3, Ph\u01b0\u1eddng B\u00ecnh Tr\u1ecb \u0110\u00f4ng, B\u00ecnh T\u00e2n, H\u1ed3 Ch\u00ed Minh","BankName":"Techcombank","BankLogo":"\/images\/bank\/techcombank.png"},{"ID":"315","Name":"Techcombank Thu\u1eadn Ki\u1ec1u","Phone":"(028) 3853 9886","Fax":"(028) 3853 9886","LongLat":"10.7515788,106.6590658","ProvinceID":"33","DistrictID":"67","Address":"S\u1ed1 36 Ch\u00e2u V\u0103n Li\u00eam, Ph\u01b0\u1eddng 10, Qu\u1eadn 5, TP H\u1ed3 Ch\u00ed Minh","BankName":"Techcombank","BankLogo":"\/images\/bank\/techcombank.png"},{"ID":"316","Name":"Techcombank Ph\u00fa Xu\u00e2n","Phone":"(028) 3873 9707","Fax":"(028) 3873 9711","LongLat":"10.751373,106.728631","ProvinceID":"33","DistrictID":"69","Address":"1873  Hu\u1ef3nh T\u1ea5n Ph\u00e1t, KP5, TT Nh\u00e0 B\u00e8, Nh\u00e0 B\u00e8, H\u1ed3 Ch\u00ed Minh","BankName":"Techcombank","BankLogo":"\/images\/bank\/techcombank.png"},{"ID":"319","Name":"Techcombank B\u00e0 Chi\u1ec3u","Phone":"(028) 3551 3909","Fax":"(028) 3551 3908","LongLat":"10.8061295,106.6971498","ProvinceID":"33","DistrictID":"73","Address":"T\u1ea7ng tr\u1ec7t, t\u1ea7ng l\u1eedng s\u1ed1 10-12 \u0111\u01b0\u1eddng L\u00ea Quang \u0110\u1ecbnh, ph\u01b0\u1eddng 14, B\u00ecnh Th\u1ea1nh, H\u1ed3 Ch\u00ed Minh","BankName":"Techcombank","BankLogo":"\/images\/bank\/techcombank.png"},{"ID":"348","Name":"Techcombank Hu\u1ef3nh T\u1ea5n Ph\u00e1t","Phone":"(028) 3773 3050","Fax":"(028) 3773 3052","LongLat":"10.706835,106.735688","ProvinceID":"33","DistrictID":"69","Address":"694 Hu\u1ef3nh T\u1ea5n Ph\u00e1t, qu\u1eadn 7, TP H\u1ed3 Ch\u00ed Minh","BankName":"Techcombank","BankLogo":"\/images\/bank\/techcombank.png"},{"ID":"361","Name":"Techcombank Qu\u1eadn 6","Phone":"(028) 3817 0812","Fax":"(028) 3817 0816","LongLat":"10.752305,106.634711","ProvinceID":"33","DistrictID":"68","Address":"439 Nguy\u1ec5n V\u0103n Lu\u00f4ng, P12, Qu\u1eadn 6, H\u1ed3 Ch\u00ed Minh","BankName":"Techcombank","BankLogo":"\/images\/bank\/techcombank.png"},{"ID":"373","Name":"Techcombank \u0110\u1ed3ng Kh\u00e1nh","Phone":"(028) 3924 5565","Fax":"(028) 3924 5582","LongLat":"10.7531614,106.6723432","ProvinceID":"33","DistrictID":"67","Address":"S\u1ed1 982 Tr\u1ea7n H\u01b0ng \u0110\u1ea1o, Ph\u01b0\u1eddng 7, Qu\u1eadn 5, H\u1ed3 Ch\u00ed Minh","BankName":"Techcombank","BankLogo":"\/images\/bank\/techcombank.png"},{"ID":"396","Name":"Techcombank Tr\u1ea7n H\u01b0ng \u0110\u1ea1o","Phone":"(028) 3924 2602","Fax":"(028) 3836 2202","LongLat":"10.7548818,106.6802796","ProvinceID":"33","DistrictID":"67","Address":"857 Tr\u1ea7n H\u01b0ng \u0110\u1ea1o, ph\u01b0\u1eddng 1, qu\u1eadn 5, TP H\u1ed3 Ch\u00ed Minh","BankName":"Techcombank","BankLogo":"\/images\/bank\/techcombank.png"},{"ID":"436","Name":"Techcombank Nam S\u00e0i G\u00f2n","Phone":"+84 (28) 5401 2317","Fax":"+84 (28) 5401 2315","LongLat":"10.7576617,106.7001024","ProvinceID":"33","DistrictID":"66","Address":"S\u1ed1 148 \u0110\u01b0\u1eddng Kh\u00e1nh H\u1ed9i, ph\u01b0\u1eddng 3, qu\u1eadn 4, TP H\u1ed3 Ch\u00ed Minh","BankName":"Techcombank","BankLogo":"\/images\/bank\/techcombank.png"},{"ID":"441","Name":"Techcombank T\u00e2n T\u1ea1o","Phone":"(028) 3762 0569","Fax":"(028) 3768 0570","LongLat":"10.7580318,106.6137461","ProvinceID":"33","DistrictID":"72","Address":"590-594 T\u1ec9nh L\u1ed9 10, ph\u01b0\u1eddng B\u00ecnh Tr\u1ecb \u0110\u00f4ng, qu\u1eadn B\u00ecnh T\u00e2n, TP H\u1ed3 Ch\u00ed Minh","BankName":"Techcombank","BankLogo":"\/images\/bank\/techcombank.png"},{"ID":"479","Name":"Techcombank Nguy\u1ec5n Ch\u00ed Thanh","Phone":"028 3957 4303","Fax":"028 3957 4301","LongLat":"10.759075,106.6638","ProvinceID":"33","DistrictID":"50","Address":"S\u1ed1 468 A \u0110\u01b0\u1eddng Nguy\u1ec5n Ch\u00ed Thanh, Ph\u01b0\u1eddng 6, Qu\u1eadn 10, TP H\u1ed3 Ch\u00ed Minh","BankName":"Techcombank","BankLogo":"\/images\/bank\/techcombank.png"},{"ID":"489","Name":"Techcombank Ph\u00f3 C\u01a1 \u0110i\u1ec1u","Phone":"(028) 3956 2369","Fax":"(028) 3956 2367","LongLat":"10.7595343,106.6568706","ProvinceID":"33","DistrictID":"51","Address":"128 \u0110\u01b0\u1eddng Ph\u00f3 C\u01a1 \u0110i\u1ec1u, ph\u01b0\u1eddng 4, qu\u1eadn 11, TP H\u1ed3 Ch\u00ed Minh","BankName":"Techcombank","BankLogo":"\/images\/bank\/techcombank.png"},{"ID":"512","Name":"Techcombank An \u0110\u00f4ng","Phone":"(028) 3835 0203 - 3833 8024","Fax":"(028) 3835 6988","LongLat":"10.759931,106.6709732","ProvinceID":"33","DistrictID":"67","Address":"S\u1ed1 97M Nguy\u1ec5n Duy D\u01b0\u01a1ng, Ph\u01b0\u1eddng 9, Qu\u1eadn 5, H\u1ed3 Ch\u00ed Minh","BankName":"Techcombank","BankLogo":"\/images\/bank\/techcombank.png"},{"ID":"522","Name":"Techcombank Qu\u1eadn 5","Phone":"(028) 383 92010","Fax":"(028) 3839 2062","LongLat":"10.7607428,106.6815662","ProvinceID":"33","DistrictID":"67","Address":"284A An D\u01b0\u01a1ng V\u01b0\u01a1ng, Ph\u01b0\u1eddng 4, Q. 5, TP.HCM","BankName":"Techcombank","BankLogo":"\/images\/bank\/techcombank.png"},{"ID":"529","Name":"Techcombank Nguy\u1ec5n T\u1ea5t Th\u00e0nh","Phone":"(028) 3941 3231","Fax":"(028) 3941 3230","LongLat":"10.765271,106.706941","ProvinceID":"33","DistrictID":"66","Address":"92 - 94 - 96 Nguy\u1ec5n T\u1ea5t Th\u00e0nh, Ph\u01b0\u1eddng 12, Qu\u1eadn 4, H\u1ed3 Ch\u00ed Minh","BankName":"Techcombank","BankLogo":"\/images\/bank\/techcombank.png"},{"ID":"537","Name":"Techcombank Minh Ph\u1ee5ng","Phone":"(028) 3858 9293","Fax":"(028) 3858 9290","LongLat":"10.758859,106.64397","ProvinceID":"33","DistrictID":"51","Address":"337 - 337 Bis Minh Ph\u1ee5ng, P10, Qu\u1eadn 11, H\u1ed3 Ch\u00ed Minh","BankName":"Techcombank","BankLogo":"\/images\/bank\/techcombank.png"},{"ID":"539","Name":"Techcombank Tam Hi\u1ec7p","Phone":"(0251) 391 5377\/78","Fax":"---","LongLat":"10.9445567,106.8581903","ProvinceID":"53","DistrictID":"259","Address":"359\/35 \u0110\u01b0\u1eddng Ph\u1ea1m V\u0103n Thu\u00e2n, ph\u01b0\u1eddng Tam Hi\u1ec7p, Bi\u00ean H\u00f2a, \u0110\u1ed3ng Nai","BankName":"Techcombank","BankLogo":"\/images\/bank\/techcombank.png"},{"ID":"553","Name":"Techcombank Qu\u1eadn 10","Phone":"(028) 3833 0124","Fax":"(028) 3833 0126","LongLat":"10.7628577,106.6768987","ProvinceID":"33","DistrictID":"50","Address":"78 H\u00f9ng V\u01b0\u01a1ng, P.1, Qu\u1eadn 10, Tp.HCM","BankName":"Techcombank","BankLogo":"\/images\/bank\/techcombank.png"},{"ID":"577","Name":"Techcombank L\u00e3nh Binh Th\u0103ng","Phone":"(028) 3965 1370","Fax":"(028) 3965 1369","LongLat":"10.7642482,106.6481956","ProvinceID":"33","DistrictID":"51","Address":"S\u1ed1 308 \u0110\u01b0\u1eddng L\u00e3nh Binh Th\u0103ng, Ph\u01b0\u1eddng 11, Qu\u1eadn 11, TP H\u1ed3 Ch\u00ed Minh","BankName":"Techcombank","BankLogo":"\/images\/bank\/techcombank.png"},{"ID":"597","Name":"Techcombank Tr\u1ea7n Quang Di\u1ec7u","Phone":"(028) 3931 5715","Fax":"(028) 3931 5713","LongLat":"10.785951,106.678479","ProvinceID":"33","DistrictID":"65","Address":"51 Tr\u1ea7n Quang Di\u1ec7u, P.14, Qu\u1eadn 3, H\u1ed3 Ch\u00ed Minh","BankName":"Techcombank","BankLogo":"\/images\/bank\/techcombank.png"},{"ID":"600","Name":"Techcombank \u0110\u01b0\u1eddng 3 Th\u00e1ng 2","Phone":"(028) 3866 9429\/30","Fax":"(028) 3866 9431","LongLat":"10.7660273,106.664009","ProvinceID":"33","DistrictID":"50","Address":"574 \u0111\u01b0\u1eddng 3 th\u00e1ng 2, ph\u01b0\u1eddng 14, qu\u1eadn 10, TP H\u1ed3 Ch\u00ed Minh","BankName":"Techcombank","BankLogo":"\/images\/bank\/techcombank.png"},{"ID":"639","Name":"Techcombank Nguy\u1ec5n Th\u00e1i H\u1ecdc","Phone":"(0216) 222 0226","Fax":"---","LongLat":"21.7167689,104.8985878","ProvinceID":"94","DistrictID":"681","Address":"Gian h\u00e0ng L1 - 03, t\u1ea7ng 1, khu TTTM Vincom Plaza Y\u00ean B\u00e1i, t\u1ed5 64,65,67, \u0111\u01b0\u1eddng Nguy\u1ec5n Th\u00e1i H\u1ecdc, Y\u00ean B\u00e1i, Y\u00ean B\u00e1i","BankName":"Techcombank","BankLogo":"\/images\/bank\/techcombank.png"},{"ID":"646","Name":"Techcombank B\u00f9i Th\u1ecb Xu\u00e2n","Phone":"+84 (28) 6291 6810","Fax":"+84 (28) 6291 5440","LongLat":"10.767892,106.686323","ProvinceID":"33","DistrictID":"49","Address":"S\u1ed1 170 -172 B\u00f9i Th\u1ecb Xu\u00e2n, Ph\u01b0\u1eddng Ph\u1ea1m Ng\u0169 L\u00e3o, Qu\u1eadn 1, H\u1ed3 Ch\u00ed Minh","BankName":"Techcombank","BankLogo":"\/images\/bank\/techcombank.png"},{"ID":"657","Name":"Techcombank Ph\u00fa Th\u1ecd","Phone":"(028) 3962 5344","Fax":"(028) 3858 0168","LongLat":"10.7677226,106.6531196","ProvinceID":"33","DistrictID":"51","Address":"447 L\u00ea \u0110\u1ea1i H\u00e0nh, Ph\u01b0\u1eddng 11, Qu\u1eadn 11, TP H\u1ed3 Ch\u00ed Minh","BankName":"Techcombank","BankLogo":"\/images\/bank\/techcombank.png"},{"ID":"662","Name":"Techcombank B\u00ecnh Th\u1edbi","Phone":"(028) 5406 8985","Fax":"(028) 5406 8983","LongLat":"10.7702296,106.6448638","ProvinceID":"33","DistrictID":"51","Address":"336- 338 \u0110\u01b0\u1eddng L\u1ea1c Long Qu\u00e2n, Ph\u01b0\u1eddng 5, Qu\u1eadn 11, H\u1ed3 Ch\u00ed Minh","BankName":"Techcombank","BankLogo":"\/images\/bank\/techcombank.png"},{"ID":"721","Name":"Techcombank K\u1ef3 H\u00f2a","Phone":"(028) 3868 1657 - 3880 0272","Fax":"---","LongLat":"10.772587,106.6691535","ProvinceID":"33","DistrictID":"50","Address":"425 S\u01b0 V\u1ea1n H\u1ea1nh, ph\u01b0\u1eddng 12, qu\u1eadn 10, TP H\u1ed3 Ch\u00ed Minh","BankName":"Techcombank","BankLogo":"\/images\/bank\/techcombank.png"},{"ID":"753","Name":"Techcombank Cao Th\u1eafng","Phone":"(028) 3832 9881","Fax":"(028) 3832 9880","LongLat":"10.7712024,106.6805136","ProvinceID":"33","DistrictID":"65","Address":"65C Cao Th\u1eafng, F3, Qu\u1eadn 3, TP.HCM","BankName":"Techcombank","BankLogo":"\/images\/bank\/techcombank.png"},{"ID":"789","Name":"Techcombank T\u00e2n Ph\u00fa","Phone":"(028) 3860 5033","Fax":"(028) 3860 5042","LongLat":"10.7726874,106.6321528","ProvinceID":"33","DistrictID":"77","Address":"264 Lu\u1ef9 B\u00e1n B\u00edch, Qu\u1eadn T\u00e2n Ph\u00fa,TP H\u1ed3 Ch\u00ed Minh","BankName":"Techcombank","BankLogo":"\/images\/bank\/techcombank.png"},{"ID":"821","Name":"Techcombank S\u00e0i G\u00f2n","Phone":"(028) 3911 6868","Fax":"(028) 3528 7986","LongLat":"10.7820552,106.7061098","ProvinceID":"33","DistrictID":"49","Address":"9 - 11 \u0111\u01b0\u1eddng T\u00f4n \u0110\u1ee9c Th\u1eafng, ph\u01b0\u1eddng B\u1ebfn Ngh\u00e9, Qu\u1eadn 1, H\u1ed3 Ch\u00ed Minh","BankName":"Techcombank","BankLogo":"\/images\/bank\/techcombank.png"},{"ID":"873","Name":"Techcombank Th\u1eafng L\u1ee3i","Phone":"(028) 3 9304 532","Fax":"(028) 3 9304 491","LongLat":"10.7777796,106.6910782","ProvinceID":"33","DistrictID":"65","Address":"58 V\u00f5 V\u0103n T\u1ea7n, Ph\u01b0\u1eddng 6, Qu\u1eadn 3, TP.HCM","BankName":"Techcombank","BankLogo":"\/images\/bank\/techcombank.png"},{"ID":"900","Name":"Techcombank Ph\u00fa Trung","Phone":"(028) 3975 5163","Fax":"---","LongLat":"10.7789601,106.6451133","ProvinceID":"33","DistrictID":"76","Address":"S\u1ed1 456 \u0110\u01b0\u1eddng \u00c2u C\u01a1, ph\u01b0\u1eddng 10, qu\u1eadn T\u00e2n B\u00ecnh, TP H\u1ed3 Ch\u00ed Minh","BankName":"Techcombank","BankLogo":"\/images\/bank\/techcombank.png"},{"ID":"919","Name":"Techcombank B\u1eafc H\u1ea3i","Phone":"(028) 3977 1427","Fax":"(028) 3977 1428","LongLat":"10.7804657,106.6652888","ProvinceID":"33","DistrictID":"50","Address":"110 \u0110\u01b0\u1eddng \u0110\u1ed3ng Nai, ph\u01b0\u1eddng 15, Qu\u1eadn 10, H\u1ed3 Ch\u00ed Minh","BankName":"Techcombank","BankLogo":"\/images\/bank\/techcombank.png"},{"ID":"929","Name":"Techcombank H\u00f2a H\u01b0ng","Phone":"(028) 3862 4895","Fax":"(028) 3862 4893","LongLat":"10.7814354,106.6734811","ProvinceID":"33","DistrictID":"50","Address":"467B C\u00e1ch m\u1ea1ng th\u00e1ng 8, ph\u01b0\u1eddng 13, qu\u1eadn 10, TP H\u1ed3 Ch\u00ed Minh","BankName":"Techcombank","BankLogo":"\/images\/bank\/techcombank.png"},{"ID":"938","Name":"Techcombank Phan \u0110\u00ecnh Ph\u00f9ng","Phone":"(028) 5449 2183","Fax":"(028) 5449 2182","LongLat":"10.8023934,106.7409816","ProvinceID":"33","DistrictID":"64","Address":"L3-01C; L4-01A t\u1ea7ng L3,L4, Trung t\u00e2m th\u01b0\u01a1ng m\u1ea1i Vincom Mega Mall Th\u1ea3o \u0110i\u1ec1n, s\u1ed1 161 Xa l\u1ed9 H\u00e0 N\u1ed9i, Qu\u1eadn 2, H\u1ed3 Ch\u00ed Minh","BankName":"Techcombank","BankLogo":"\/images\/bank\/techcombank.png"},{"ID":"975","Name":"Techcombank Nguy\u1ec5n S\u01a1n","Phone":"(028) 38612805","Fax":"(028) 38612798","LongLat":"10.783753,106.6231449","ProvinceID":"33","DistrictID":"77","Address":"301 Nguy\u1ec5n S\u01a1n, Ph\u01b0\u1eddng Ph\u00fa Th\u1ea1nh, Qu\u1eadn T\u00e2n Ph\u00fa, TP. H\u1ed3 Ch\u00ed Minh","BankName":"Techcombank","BankLogo":"\/images\/bank\/techcombank.png"},{"ID":"988","Name":"Techcombank \u0110\u00f4ng S\u00e0i G\u00f2n","Phone":"(028) 5444 7748","Fax":"(028) 5444 7741","LongLat":"10.7868456,106.6533771","ProvinceID":"33","DistrictID":"76","Address":"T\u1ea7ng 1a-1b-2a s\u1ed1 443-445 L\u00fd Th\u01b0\u1eddng Ki\u1ec7t, Ph\u01b0\u1eddng 8, T\u00e2n B\u00ecnh, H\u1ed3 Ch\u00ed Minh","BankName":"Techcombank","BankLogo":"\/images\/bank\/techcombank.png"},{"ID":"1033","Name":"Techcombank Nguy\u1ec5n V\u0103n Tr\u1ed7i","Phone":"(028)03932 6834","Fax":"(028)03932 6866","LongLat":"10.7871631,106.6864027","ProvinceID":"33","DistrictID":"65","Address":"203 Nam K\u1ef3 Kh\u1edfi Ngh\u0129a, Ph\u01b0\u1eddng 7, Qu\u1eadn 3, TP.HCM","BankName":"Techcombank","BankLogo":"\/images\/bank\/techcombank.png"},{"ID":"1069","Name":"Techcombank S\u00e0i G\u00f2n the Manor","Phone":"(028) 6258 6350","Fax":"(028) 6258 6340","LongLat":"10.789977,106.7206075","ProvinceID":"33","DistrictID":"73","Address":"91 Nguy\u00ea\u0303n H\u01b0\u0303u Ca\u0309nh, P.22, B\u00ecnh Th\u1ea1nh, H\u1ed3 Ch\u00ed Minh","BankName":"Techcombank","BankLogo":"\/images\/bank\/techcombank.png"},{"ID":"1088","Name":"Techcombank T\u00e2n H\u01b0\u01a1ng","Phone":"(028) 3559 4205","Fax":" (028) 3559 4207","LongLat":"10.7959586,106.6256986","ProvinceID":"33","DistrictID":"77","Address":"94 G\u00f2 D\u1ea7u, T\u00e2n Ph\u00fa, H\u1ed3 Ch\u00ed Minh","BankName":"Techcombank","BankLogo":"\/images\/bank\/techcombank.png"},{"ID":"1098","Name":"Techcombank C\u00e1ch M\u1ea1ng Th\u00e1ng T\u00e1m","Phone":"(028) 3925 2011","Fax":"(028) 3925 2014","LongLat":"10.7731713,106.6899413","ProvinceID":"33","DistrictID":"49","Address":"95 C\u00e1ch m\u1ea1ng Th\u00e1ng T\u00e1m (10B S\u01b0\u01a1ng Nguy\u1ec7t \u00c1nh), P.B\u1ebfn Th\u00e0nh, Qu\u1eadn 1, H\u1ed3 Ch\u00ed Minh","BankName":"Techcombank","BankLogo":"\/images\/bank\/techcombank.png"},{"ID":"1122","Name":"Techcombank B\u00e0u C\u00e1t","Phone":"(028) 38 49 25 65","Fax":"(028) 38 49 25 64","LongLat":"10.7920653,106.6434366","ProvinceID":"33","DistrictID":"76","Address":"189-191 Ba\u0300u Ca\u0301t, ph\u01b0\u01a1\u0300ng 14, T\u00e2n B\u00ecnh, H\u1ed3 Ch\u00ed Minh","BankName":"Techcombank","BankLogo":"\/images\/bank\/techcombank.png"},{"ID":"1128","Name":"Techcombank T\u00e2n \u0110\u1ecbnh","Phone":"(028) 5404 7450","Fax":"(028) 5 404 7451","LongLat":"10.792557,106.6944369","ProvinceID":"33","DistrictID":"49","Address":"S\u1ed1 46 Tr\u1ea7n Quang Kh\u1ea3i, ph\u01b0\u1eddng T\u00e2n \u0110\u1ecbnh, qu\u1eadn 1, TP H\u1ed3 Ch\u00ed Minh","BankName":"Techcombank","BankLogo":"\/images\/bank\/techcombank.png"},{"ID":"1153","Name":"Techcombank \u00d4ng T\u1ea1","Phone":"(028) 3970 1315","Fax":"(028) 3970 1315","LongLat":"10.787352,106.6637524","ProvinceID":"33","DistrictID":"76","Address":"S\u1ed1 711, C\u00e1ch m\u1ea1ng Th\u00e1ng T\u00e1m, Ph\u01b0\u1eddng 6, T\u00e2n B\u00ecnh, H\u1ed3 Ch\u00ed Minh","BankName":"Techcombank","BankLogo":"\/images\/bank\/techcombank.png"},{"ID":"1155","Name":"Techcombank Tr\u01b0\u01a1ng V\u0129nh K\u00fd","Phone":"(028) 3812 9043","Fax":"(028) 3812 9045","LongLat":"10.7942897,106.6320389","ProvinceID":"33","DistrictID":"77","Address":"98A Tr\u01b0\u01a1ng V\u0129nh K\u00fd, ph\u01b0\u1eddng T\u00e2n S\u01a1n Nh\u00ec, qu\u1eadn T\u00e2n Ph\u00fa, TP H\u1ed3 Ch\u00ed Minh","BankName":"Techcombank","BankLogo":"\/images\/bank\/techcombank.png"},{"ID":"1197","Name":"Techcombank \u00c2u C\u01a1","Phone":"(028) 3812 5591\/93","Fax":"(028) 3812 5592","LongLat":"10.8021262,106.6341539","ProvinceID":"33","DistrictID":"77","Address":"S\u1ed1 74 \u0111\u01b0\u1eddng T\u00e2n S\u01a1n Nh\u00ec, ph\u01b0\u1eddng T\u00e2n S\u01a1n Nh\u00ec, T\u00e2n Ph\u00fa, H\u1ed3 Ch\u00ed Minh","BankName":"Techcombank","BankLogo":"\/images\/bank\/techcombank.png"},{"ID":"1199","Name":"Techcombank T\u00e2y S\u00e0i G\u00f2n","Phone":"(028) 6292 3489","Fax":"(028) 6292 3490","LongLat":"10.796801,106.659457","ProvinceID":"33","DistrictID":"76","Address":"51 Ho\u00e0ng Vi\u1ec7t, Ph\u01b0\u1eddng 4, T\u00e2n B\u00ecnh, H\u1ed3 Ch\u00ed Minh","BankName":"Techcombank","BankLogo":"\/images\/bank\/techcombank.png"},{"ID":"1200","Name":"Techcombank B\u1ea3y Hi\u1ec1n","Phone":"(028) 6297 0945","Fax":"(028) 6297 0943","LongLat":"10.7955211,106.6484496","ProvinceID":"33","DistrictID":"76","Address":"S\u1ed1 53-55 Tr\u01b0\u1eddng Chinh, ph\u01b0\u1eddng 12, qu\u1eadn T\u00e2n B\u00ecnh , TP H\u1ed3 Ch\u00ed Minh","BankName":"Techcombank","BankLogo":"\/images\/bank\/techcombank.png"},{"ID":"1207","Name":"Techcombank Ph\u00fa Nhu\u1eadn","Phone":"(028) 5449 9505","Fax":"(028) 5449 9506","LongLat":"10.7932385,106.6788485","ProvinceID":"33","DistrictID":"75","Address":"S\u1ed1 97 Nguy\u1ec5n V\u0103n Tr\u1ed7i, F12, Ph\u00fa Nhu\u1eadn, H\u1ed3 Ch\u00ed Minh","BankName":"Techcombank","BankLogo":"\/images\/bank\/techcombank.png"},{"ID":"1238","Name":"Techcombank B\u00ecnh T\u00e2n","Phone":"(028) 3762 0170","Fax":"(028) 3762 0172","LongLat":"10.7761234,106.6120684","ProvinceID":"33","DistrictID":"72","Address":"S\u1ed1 303 L\u00ea V\u0103n Qu\u1edbi, KP1, ph\u01b0\u1eddng B\u00ecnh Tr\u1ecb \u0110\u00f4ng, B\u00ecnh T\u00e2n, H\u1ed3 Ch\u00ed Minh","BankName":"Techcombank","BankLogo":"\/images\/bank\/techcombank.png"},{"ID":"1261","Name":"Techcombank H\u1ed3ng L\u1ea1c","Phone":"(028) 3868 7802","Fax":"(028) 3868 7800","LongLat":"","ProvinceID":"33","DistrictID":"76","Address":"795 - 795A L\u1ea1c Long Qu\u00e2n, T\u00e2n B\u00ecnh, H\u1ed3 Ch\u00ed Minh","BankName":"Techcombank","BankLogo":"\/images\/bank\/techcombank.png"},{"ID":"1274","Name":"Techcombank Phan X\u00edch Long","Phone":"(028) 3636 6695\/3636 6696","Fax":"(028) 3636 6693","LongLat":"10.7995791,106.685519","ProvinceID":"33","DistrictID":"75","Address":"80-82\/261-263 Phan X\u00edch Long, Ph\u00fa Nhu\u1eadn, H\u1ed3 Ch\u00ed Minh","BankName":"Techcombank","BankLogo":"\/images\/bank\/techcombank.png"},{"ID":"1298","Name":"Techcombank T\u00e2n B\u00ecnh","Phone":"(028) 3811 7533","Fax":"(028) 38117531","LongLat":"10.8011761,106.6521803","ProvinceID":"33","DistrictID":"76","Address":"S\u1ed1 99A 1-2-3 C\u1ed9ng h\u00f2a, Ph\u01b0\u1eddng 4, Qu\u1eadn T\u00e2n B\u00ecnh, H\u1ed3 Ch\u00ed Minh","BankName":"Techcombank","BankLogo":"\/images\/bank\/techcombank.png"},{"ID":"1328","Name":"Techcombank \u1ea4p B\u1eafc","Phone":"(028) 3813 2493","Fax":"(028) 3813 2496","LongLat":"10.8014911,106.6415811","ProvinceID":"33","DistrictID":"76","Address":"S\u1ed1 46 \u0111\u01b0\u1eddng \u1ea4p B\u1eafc, ph\u01b0\u1eddng 13, qu\u1eadn T\u00e2n B\u00ecnh, TP H\u1ed3 Ch\u00ed Minh","BankName":"Techcombank","BankLogo":"\/images\/bank\/techcombank.png"},{"ID":"1337","Name":"Techcombank B\u00ecnh Th\u1ea1nh","Phone":"(028) 3512 6664","Fax":"(028) 3512.4996","LongLat":"10.8075931,106.7161891","ProvinceID":"33","DistrictID":"73","Address":"124 \u0110\u01b0\u1eddng D2, P.25, Q. B\u00ecnh Th\u1ea1nh, TP.HCM","BankName":"Techcombank","BankLogo":"\/images\/bank\/techcombank.png"},{"ID":"1362","Name":"Techcombank B\u1ea1ch \u0110\u1eb1ng","Phone":"(028) 3511 9884","Fax":"(028) 3511 9883","LongLat":"10.8032549,106.7047781","ProvinceID":"33","DistrictID":"73","Address":"S\u1ed1 67-69, B\u1ea1ch \u0110\u1eb1ng, ph\u01b0\u1eddng 15, qu\u1eadn B\u00ecnh Th\u1ea1nh, TP H\u1ed3 Ch\u00ed Minh","BankName":"Techcombank","BankLogo":"\/images\/bank\/techcombank.png"},{"ID":"1381","Name":"Techcombank V\u0103n Th\u00e1nh","Phone":"(028) 3512 6268","Fax":"(028) 3899 2926","LongLat":"10.8000612,106.7185849","ProvinceID":"33","DistrictID":"75","Address":"561 \u0110i\u00ea\u0323n Bi\u00ean Phu\u0309, Ph\u01b0\u01a1\u0300ng 25, B\u00ecnh Th\u1ea1nh, H\u1ed3 Ch\u00ed Minh","BankName":"Techcombank","BankLogo":"\/images\/bank\/techcombank.png"},{"ID":"1413","Name":"Techcombank Hi\u1ec7p B\u00ecnh Ph\u01b0\u1edbc","Phone":"(028) 3727 3100 - 3727 3452","Fax":"(028) 3727 3450","LongLat":"10.8526844,106.7205537","ProvinceID":"33","DistrictID":"78","Address":"S\u1ed1 609 Qu\u1ed1c l\u1ed9 13, Ph\u01b0\u1eddng Hi\u1ec7p B\u00ecnh Ph\u01b0\u1edbc, Th\u1ee7 \u0110\u1ee9c, H\u1ed3 Ch\u00ed Minh","BankName":"Techcombank","BankLogo":"\/images\/bank\/techcombank.png"},{"ID":"1415","Name":"Techcombank Nguy\u1ec5n Ki\u1ec7m","Phone":"(028) 6290 9191","Fax":"(028) 6250 9900","LongLat":"10.8065217,106.6783674","ProvinceID":"33","DistrictID":"75","Address":"607-609 Nguy\u00ea\u0303n Ki\u00ea\u0323m, Ph\u01b0\u1eddng 9, Ph\u00fa Nhu\u1eadn, H\u1ed3 Ch\u00ed Minh","BankName":"Techcombank","BankLogo":"\/images\/bank\/techcombank.png"},{"ID":"1429","Name":"Techcombank Tr\u01b0\u1eddng S\u01a1n","Phone":"(028) 3848 7361","Fax":"(028) 3848 7359","LongLat":"10.8098009,106.6630268","ProvinceID":"33","DistrictID":"76","Address":"49 Tr\u01b0\u1eddng S\u01a1n, ph\u01b0\u1eddng 2, qu\u1eadn T\u00e2n B\u00ecnh, TP H\u1ed3 Ch\u00ed Minh","BankName":"Techcombank","BankLogo":"\/images\/bank\/techcombank.png"},{"ID":"1434","Name":"Techcombank L\u00ea Quang \u0110\u1ecbnh","Phone":"(028).62977185\/6\/7\/8","Fax":"(028) 3297 7184","LongLat":"10.8161904,106.7068044","ProvinceID":"33","DistrictID":"73","Address":"205A \u0111\u01b0\u1eddng Nguy\u1ec5n X\u00ed, Ph\u01b0\u1eddng 26, B\u00ecnh Th\u1ea1nh, H\u1ed3 Ch\u00ed Minh","BankName":"Techcombank","BankLogo":"\/images\/bank\/techcombank.png"},{"ID":"1440","Name":"Techcombank \u0110inh B\u1ed9 L\u0129nh","Phone":"(028) 3899 8101","Fax":"(028) 3899 8105","LongLat":"10.8095443,106.709183","ProvinceID":"33","DistrictID":"73","Address":"170-172 \u0110inh B\u1ed9 L\u0129nh, P.26, Q. B\u00ecnh Th\u1ea1nh, TP.HCM","BankName":"Techcombank","BankLogo":"\/images\/bank\/techcombank.png"},{"ID":"1446","Name":"Techcombank Thanh \u0110a","Phone":"(028) 3899 7227","Fax":"(028) 3511 8813","LongLat":"10.803763,106.7114464","ProvinceID":"33","DistrictID":"73","Address":"633-635 X\u00f4 Vi\u1ebft Ngh\u1ec7 T\u0129nh, ph\u01b0\u1eddng 26, qu\u1eadn B\u00ecnh Th\u1ea1nh, TP H\u1ed3 Ch\u00ed Minh","BankName":"Techcombank","BankLogo":"\/images\/bank\/techcombank.png"},{"ID":"1464","Name":"Techcombank T\u00e2n S\u01a1n Nh\u1ea5t","Phone":"(028) 3848 9853","Fax":"(028) 3848 9851","LongLat":"10.813195,106.666829","ProvinceID":"33","DistrictID":"76","Address":"12 H\u1ed3ng H\u00e0, ph\u01b0\u1eddng 2, qu\u1eadn T\u00e2n B\u00ecnh, TP H\u1ed3 Ch\u00ed Minh","BankName":"Techcombank","BankLogo":"\/images\/bank\/techcombank.png"},{"ID":"1490","Name":"Techcombank Tr\u01b0\u1eddng Chinh","Phone":"(028) 3815 8384","Fax":"(028) 3815 8386","LongLat":"10.8187751,106.6310014","ProvinceID":"33","DistrictID":"76","Address":"826A \u0110\u01b0\u1eddng Tr\u01b0\u1eddng Chinh, ph\u01b0\u1eddng 15, qu\u1eadn T\u00e2n B\u00ecnh, TP. H\u1ed3 Ch\u00ed Minh","BankName":"Techcombank","BankLogo":"\/images\/bank\/techcombank.png"},{"ID":"1494","Name":"Techcombank B\u00ecnh H\u00f2a","Phone":"(028) 3516 2702","Fax":"(028) 3516 0445","LongLat":"10.815238,106.697772","ProvinceID":"33","DistrictID":"73","Address":"215G - 215H, N\u01a1 Trang Long, Ph\u01b0\u1eddng 12, B\u00ecnh Th\u1ea1nh, H\u1ed3 Ch\u00ed Minh","BankName":"Techcombank","BankLogo":"\/images\/bank\/techcombank.png"},{"ID":"1510","Name":"Techcombank \u0110\u1ed7 Xu\u00e2n H\u1ee3p","Phone":"(028) 3728 3818","Fax":"(028) 3728 3811","LongLat":"10.828707,106.7685849","ProvinceID":"33","DistrictID":"71","Address":"280-282 \u0110\u1ed7 Xu\u00e2n H\u1ee3p, ph\u01b0\u1eddng Ph\u01b0\u1edbc Long A, Qu\u1eadn 9, H\u1ed3 Ch\u00ed Minh","BankName":"Techcombank","BankLogo":"\/images\/bank\/techcombank.png"},{"ID":"1522","Name":"Techcombank Nguy\u1ec5n Th\u00e1i S\u01a1n","Phone":"(028) 6295 7535","Fax":"(028) 6295 7537","LongLat":"10.825168,106.6875699","ProvinceID":"33","DistrictID":"74","Address":"233 Nguy\u1ec5n Th\u00e1i S\u01a1n, ph\u01b0\u1eddng 7, qu\u1eadn G\u00f2 V\u1ea5p, TP H\u1ed3 Ch\u00ed Minh","BankName":"Techcombank","BankLogo":"\/images\/bank\/techcombank.png"},{"ID":"1535","Name":"Techcombank Nguy\u1ec5n Oanh","Phone":"(028) 3989 7631","Fax":"(028) 3989 7633","LongLat":"10.8303109,106.6780077","ProvinceID":"33","DistrictID":"74","Address":"S\u1ed1 110-112 Nguy\u1ec5n Oanh,ph\u01b0\u1eddng 7,qu\u1eadn G\u00f2 V\u1ea5p, TP H\u1ed3 Ch\u00ed Minh","BankName":"Techcombank","BankLogo":"\/images\/bank\/techcombank.png"},{"ID":"1557","Name":"Techcombank Quang Trung","Phone":"(028) 5446 3304 \/06","Fax":"(028) 5446 3305","LongLat":"10.8290363,106.6737587","ProvinceID":"33","DistrictID":"74","Address":"170 C Quang Trung, ph\u01b0\u1eddng 10, qu\u1eadn G\u00f2 V\u1ea5p, TP H\u1ed3 Ch\u00ed Minh","BankName":"Techcombank","BankLogo":"\/images\/bank\/techcombank.png"},{"ID":"1598","Name":"Techcombank T\u00e2n H\u01b0ng Thu\u1eadn","Phone":"(028) 3592 1826","Fax":"(028) 3592 1829","LongLat":"10.839073,106.6173496","ProvinceID":"33","DistrictID":"52","Address":"492 \u0111\u01b0\u1eddng Tr\u01b0\u1eddng Chinh, ph\u01b0\u1eddng T\u00e2n H\u01b0ng Thu\u1eadn, qu\u1eadn 12, Tp HCM","BankName":"Techcombank","BankLogo":"\/images\/bank\/techcombank.png"},{"ID":"1606","Name":"Techcombank Hi\u1ec7p Ph\u00fa","Phone":"(028) 3736 1649","Fax":"(028) 3736 1645","LongLat":"10.8450577,106.778702","ProvinceID":"33","DistrictID":"71","Address":"L1-07 t\u1ea7ng Tr\u1ec7t Vincom L\u00ea V\u0103n Vi\u00ea\u0323t, \u0111\u01b0\u1eddng L\u00ea V\u0103n Vi\u1ec7t, ph\u01b0\u1eddng Hi\u00ea\u0323p Phu\u0301, Qu\u1eadn 9, H\u1ed3 Ch\u00ed Minh","BankName":"Techcombank","BankLogo":"\/images\/bank\/techcombank.png"},{"ID":"1620","Name":"Techcombank L\u00ea \u0110\u1ee9c Th\u1ecd","Phone":"(028) 5446 7555","Fax":"(028) 5446 7666","LongLat":"10.8476394,106.6684364","ProvinceID":"33","DistrictID":"74","Address":"579 L\u00ea \u0110\u1ee9c Th\u1ecd, P.16, G\u00f2 V\u1ea5p, H\u1ed3 Ch\u00ed Minh","BankName":"Techcombank","BankLogo":"\/images\/bank\/techcombank.png"},{"ID":"1623","Name":"Techcombank T\u00f4 K\u00fd","Phone":"(028) 5427 2493","Fax":"(028) 5427 2495","LongLat":"10.8511313,106.6288911","ProvinceID":"33","DistrictID":"52","Address":"A52-A53 T\u00f4 K\u00fd, ph\u01b0\u1eddng \u0110\u00f4ng H\u01b0ng Thu\u1eadn, qu\u1eadn 12, TP H\u1ed3 Ch\u00ed Minh","BankName":"Techcombank","BankLogo":"\/images\/bank\/techcombank.png"},{"ID":"1642","Name":"Techcombank Th\u1ee7 \u0110\u1ee9c","Phone":"(028) 3722 5086","Fax":"(028) 3722 5085","LongLat":"10.8499429,106.7670234","ProvinceID":"33","DistrictID":"78","Address":"117 D\u00e2n Ch\u1ee7, ph\u01b0\u1eddng B\u00ecnh Th\u1ecd, qu\u1eadn Th\u1ee7 \u0110\u1ee9c, TP H\u1ed3 Ch\u00ed Minh","BankName":"Techcombank","BankLogo":"\/images\/bank\/techcombank.png"},{"ID":"1655","Name":"Techcombank V\u00f5 V\u0103n Ng\u00e2n","Phone":"(028) 3720 2478","Fax":"(028) 3720 2436","LongLat":"10.850901,106.75531","ProvinceID":"33","DistrictID":"78","Address":"S\u1ed1 06 V\u00f5 V\u0103n Ng\u00e2n, P.Tr\u01b0\u1eddng Th\u1ecd, Q.Th\u1ee7 \u0110\u1ee9c, Tp HCM","BankName":"Techcombank","BankLogo":"\/images\/bank\/techcombank.png"},{"ID":"1713","Name":"Techcombank H\u00f3c M\u00f4n","Phone":"(028) 3710 7359","Fax":" (028) 3710 7360","LongLat":"10.8878227,106.592617","ProvinceID":"33","DistrictID":"47","Address":"11\/4 Khu ph\u1ed1 2, th\u1ecb tr\u1ea5n H\u00f3c M\u00f4n, H\u00f3c M\u00f4n, H\u1ed3 Ch\u00ed Minh","BankName":"Techcombank","BankLogo":"\/images\/bank\/techcombank.png"},{"ID":"1717","Name":"Techcombank Nguy\u1ec5n \u1ea2nh Th\u1ee7","Phone":"(028) 3447 4811","Fax":"(028) 3447 4812","LongLat":"10.8556983,106.6074134","ProvinceID":"33","DistrictID":"47","Address":"127\/4 - 127\/6 Nguy\u1ec5n \u1ea2nh Th\u1ee7, X\u00e3 Trung Ch\u00e1nh, H\u00f3c M\u00f4n, H\u1ed3 Ch\u00ed Minh","BankName":"Techcombank","BankLogo":"\/images\/bank\/techcombank.png"},{"ID":"1734","Name":"Techcombank C\u1ee7 Chi","Phone":"(028) 3790 9899","Fax":"(028) 3790 9922","LongLat":"11.0074747,106.4225994","ProvinceID":"33","DistrictID":"46","Address":"S\u1ed1 898 QL22, Khu Ph\u1ed1 8, Th\u1ecb Tr\u1ea5n C\u1ee7 Chi, Huy\u1ec7n C\u1ee7 Chi, TP.HCM","BankName":"Techcombank","BankLogo":"\/images\/bank\/techcombank.png"},{"ID":"1860","Name":"Techcombank V\u0103n Qu\u00e1n","Phone":"(024) 3354 3327","Fax":"(024) 3354 7656","LongLat":"20.9749569,105.787784","ProvinceID":"32","DistrictID":"4","Address":"S\u1ed1 10-12 \u0111\u01b0\u1eddng 19\/5, ph\u01b0\u1eddng V\u0103n Qu\u00e1n, V\u0103n M\u1ed7, th\u1ecb x\u00e3 H\u00e0 \u0110\u00f4ng, H\u00e0 N\u1ed9i","BankName":"Techcombank","BankLogo":"\/images\/bank\/techcombank.png"},{"ID":"1874","Name":"Techcombank H\u00e0 T\u00e2y","Phone":"(024) 3311 9950","Fax":"(024) 3311 9962","LongLat":"20.9684648,105.7689026","ProvinceID":"32","DistrictID":"4","Address":"T\u1ea7ng 1, t\u00f2a nh\u00e0 CT2 \u0111\u01b0\u1eddng Ng\u00f4 Th\u00ec Nh\u1eadm, Ph\u01b0\u1eddng H\u00e0 C\u1ea7u, H\u00e0 \u0110\u00f4ng, H\u00e0 N\u1ed9i","BankName":"Techcombank","BankLogo":"\/images\/bank\/techcombank.png"},{"ID":"1875","Name":"Techcombank Xala","Phone":"(024) 3311 5673","Fax":"(024) 3311 5675","LongLat":"20.9637550,105.7889459","ProvinceID":"32","DistrictID":"4","Address":"S\u1ed1 2, khu bi\u1ec7t th\u1ef1 08, khu \u0110\u00f4 th\u1ecb m\u1edbi Xa La, ph\u01b0\u1eddng Ph\u00fac La, Qu\u1eadn H\u00e0 \u0110\u00f4ng","BankName":"Techcombank","BankLogo":"\/images\/bank\/techcombank.png"},{"ID":"1877","Name":"Techcombank Tr\u1ea7n \u0110i\u1ec1n","Phone":"(024) 3640 0596","Fax":"(024) 3640 0597","LongLat":"20.9831371,105.8319653","ProvinceID":"32","DistrictID":"7","Address":"Ki \u1ed1t 3-4 nh\u00e0 CT5- \u0110\u01a1n Nguy\u00ean 2 Khu \u0110TM \u0110\u1ecbnh C\u00f4ng, Ho\u00e0ng Mai, H\u00e0 N\u1ed9i","BankName":"Techcombank","BankLogo":"\/images\/bank\/techcombank.png"},{"ID":"1885","Name":"Techcombank Tr\u01b0\u01a1ng \u0110\u1ecbnh","Phone":"(024) 3642 5033","Fax":"(024) 3642 5032","LongLat":"20.9812315,105.845348","ProvinceID":"32","DistrictID":"7","Address":"593 Tr\u01b0\u01a1ng \u0110i\u0323nh, Gi\u00e1p B\u00e1t, Ho\u00e0ng Mai, H\u00e0 N\u1ed9i","BankName":"Techcombank","BankLogo":"\/images\/bank\/techcombank.png"},{"ID":"1935","Name":"Techcombank Linh \u0110\u00e0m","Phone":"(024) 3641 6088","Fax":"(024) 3641 6090","LongLat":"20.9683925,105.8274043","ProvinceID":"32","DistrictID":"7","Address":"T\u1ea7ng 1 CC2A, Khu \u0111\u00f4 th\u1ecb m\u1edbi B\u1eafc Linh \u0110\u00e0m, \u0110\u1ea1i Kim, Ho\u00e0ng Mai, H\u00e0 N\u1ed9i","BankName":"Techcombank","BankLogo":"\/images\/bank\/techcombank.png"},{"ID":"1936","Name":"Techcombank Ho\u00e0ng Mai","Phone":"024 6284 2637","Fax":"024 6284 2635","LongLat":"20.9758284,105.8366605","ProvinceID":"32","DistrictID":"7","Address":"T\u1ea7ng 1, nh\u00e0 B15, \u0110\u00f4 th\u1ecb m\u1edbi \u0110\u1ea1i Kim, Ho\u00e0ng Mai, H\u00e0 N\u1ed9i","BankName":"Techcombank","BankLogo":"\/images\/bank\/techcombank.png"},{"ID":"1965","Name":"Techcombank Minh Khai","Phone":"(028) 3910 5324","Fax":"(028) 3910 5334","LongLat":"10.7866322,106.7015952","ProvinceID":"33","DistrictID":"49","Address":"S\u1ed1 18 Ter, Nguy\u1ec5n Th\u1ecb Minh Khai, ph\u01b0\u1eddng \u0110a Kao, Qu\u1eadn 1, H\u1ed3 Ch\u00ed Minh","BankName":"Techcombank","BankLogo":"\/images\/bank\/techcombank.png"},{"ID":"2003","Name":"Techcombank Thanh Xu\u00e2n","Phone":"(024) 3554 2698","Fax":"(024) 3554 2706","LongLat":"20.9923446,105.8040851","ProvinceID":"32","DistrictID":"24","Address":"467 Nguy\u1ec5n Tr\u00e3i, Thanh Xu\u00e2n, H\u00e0 N\u1ed9i","BankName":"Techcombank","BankLogo":"\/images\/bank\/techcombank.png"},{"ID":"2018","Name":"Techcombank Nguy\u1ec5n An Ninh","Phone":"(024) 3662 8812","Fax":"---","LongLat":"20.990538,105.845026","ProvinceID":"32","DistrictID":"7","Address":"S\u1ed1 65 Nguy\u1ec5n An Ninh, Ho\u00e0ng Mai, H\u00e0 N\u1ed9i","BankName":"Techcombank","BankLogo":"\/images\/bank\/techcombank.png"},{"ID":"2032","Name":"Techcombank Ng\u00e3 T\u01b0 S\u1edf","Phone":"(024) 3562 6156","Fax":"(024) 3562 6157","LongLat":"21.0004753,105.8154052","ProvinceID":"32","DistrictID":"24","Address":"78 Nguy\u1ec5n Tr\u00e3i, Thanh Xu\u00e2n, H\u00e0 N\u1ed9i","BankName":"Techcombank","BankLogo":"\/images\/bank\/techcombank.png"},{"ID":"2057","Name":"Techcombank Pasteur   ","Phone":"(028) 3821 2155","Fax":"(028) 3821 2152","LongLat":"10.7705532,106.7029021","ProvinceID":"33","DistrictID":"49","Address":"S\u1ed1 28 - 30 - 32 - 34 Pasteur, Ph\u01b0\u1eddng. Nguy\u1ec5n Tha\u0301i Bi\u0300nh, Qu\u1eadn 1, H\u1ed3 Ch\u00ed Minh","BankName":"Techcombank","BankLogo":"\/images\/bank\/techcombank.png"},{"ID":"2065","Name":"Techcombank An Ph\u00fa","Phone":"(028) 3636 6688","Fax":"(028) 3636 6689","LongLat":"10.8027617,106.7414412","ProvinceID":"33","DistrictID":"64","Address":"S\u1ed1 159 Xa L\u1ed9 H\u00e0 N\u1ed9i, Qu\u1eadn 2, H\u1ed3 Ch\u00ed Minh","BankName":"Techcombank","BankLogo":"\/images\/bank\/techcombank.png"},{"ID":"2069","Name":"Techcombank Ch\u1ee3 M\u01a1","Phone":"(024) 3624 7088","Fax":"(024) 3624 7099","LongLat":"21.002212,105.850854","ProvinceID":"32","DistrictID":"5","Address":"297 B\u1ea1ch Mai, Hai B\u00e0 Tr\u01b0ng, H\u00e0 N\u1ed9i","BankName":"Techcombank","BankLogo":"\/images\/bank\/techcombank.png"},{"ID":"2089","Name":"Techcombank Ph\u1ea1m V\u0103n \u0110\u1ed3ng","Phone":"(024) 6666 2651","Fax":"(024) 6664 2451","LongLat":"21.0505876,105.7776653","ProvinceID":"32","DistrictID":"42","Address":"M\u1ed9t ph\u1ea7n t\u1ea1i B7-01-03 t\u1ea7ng 1 l\u00f4 s\u1ed1 3 \u0110\u01a1n nguy\u00ean 21B7, Khu nh\u00e0 \u1edf cao t\u1ea7ng CT2, - Khu \u0111\u00f4 th\u1ecb Th\u00e0nh ph\u1ed1 Giao l\u01b0u, ph\u01b0\u1eddng C\u1ed5 Nhu\u1ebf 1, qu\u1eadn B\u1eafc T\u1eeb Li\u00eam,  H\u00e0 N\u1ed9i","BankName":"Techcombank","BankLogo":"\/images\/bank\/techcombank.png"},{"ID":"2093","Name":"Techcombank Kh\u01b0\u01a1ng Mai","Phone":"(024) 3566 5366","Fax":"(024) 3566 5367","LongLat":"20.996367,105.8269761","ProvinceID":"32","DistrictID":"24","Address":"70 Ho\u00e0ng V\u0103n Th\u00e1i, Thanh Xu\u00e2n, H\u00e0 N\u1ed9i","BankName":"Techcombank","BankLogo":"\/images\/bank\/techcombank.png"},{"ID":"2122","Name":"Techcombank K\u1ef3 \u0110\u1ed3ng","Phone":"(028) 6290 5605","Fax":"(028) 6290 5602","LongLat":"10.78356,106.6825867","ProvinceID":"33","DistrictID":"65","Address":"T\u00f2a nh\u00e0 S\u00f4ng \u0110\u00e0, s\u1ed1 14B K\u1ef3 \u0110\u1ed3ng, ph\u01b0\u1eddng 9, qu\u1eadn 3, TP H\u1ed3 Ch\u00ed Minh","BankName":"Techcombank","BankLogo":"\/images\/bank\/techcombank.png"},{"ID":"2127","Name":"Techcombank Ph\u01b0\u01a1ng Mai","Phone":"(024) 3868 9999","Fax":"(024) 3868 9899","LongLat":"20.998861,105.837852","ProvinceID":"32","DistrictID":"3","Address":"20 Tr\u01b0\u1eddng Chinh, Thanh Xu\u00e2n, H\u00e0 N\u1ed9i","BankName":"Techcombank","BankLogo":"\/images\/bank\/techcombank.png"},{"ID":"2143","Name":"Techcombank \u0110\u1ecbnh C\u00f4ng","Phone":"(024) 3665 8518","Fax":"(024) 3568 3657","LongLat":"20.9970919,105.8217566","ProvinceID":"32","DistrictID":"24","Address":"52 V\u01b0\u01a1ng Th\u1eeba V\u0169, Ph\u01b0\u1eddng Kh\u01b0\u01a1ng Trung, Q. Thanh Xu\u00e2n, H\u00e0 N\u1ed9i","BankName":"Techcombank","BankLogo":"\/images\/bank\/techcombank.png"},{"ID":"2172","Name":"Techcombank B\u00e1ch Khoa","Phone":"(024) 3868 4918","Fax":"(024) 3868 4916","LongLat":"21.0019456,105.8453935","ProvinceID":"32","DistrictID":"5","Address":"136 L\u00ea Thanh Ngh\u1ecb, Hai B\u00e0 Tr\u01b0ng, Ha\u0300 N\u00f4\u0323i","BankName":"Techcombank","BankLogo":"\/images\/bank\/techcombank.png"},{"ID":"2194","Name":"Techcombank L\u1ea1c Trung","Phone":"(024) 6327 8951","Fax":"---","LongLat":"21.0026249,105.8640586","ProvinceID":"32","DistrictID":"5","Address":"23 L\u1ea1c Trung, Hai B\u00e0 Tr\u01b0ng, H\u00e0 N\u1ed9i","BankName":"Techcombank","BankLogo":"\/images\/bank\/techcombank.png"},{"ID":"2213","Name":"Techcombank The Manor","Phone":"(024) 3787 8999","Fax":"(024) 3787 8889","LongLat":"21.0165182,105.7795285","ProvinceID":"32","DistrictID":"24","Address":"M\u1ed9t ph\u1ea7n di\u1ec7n t\u00edch t\u1ea7ng 1 t\u00f2a nh\u00e0 HH3, Sudico - Khu \u0111\u00f4 th\u1ecb M\u1ef9 \u0110\u00ecnh M\u1ec5 Tr\u00ec, Ph\u01b0\u1eddng M\u1ef9 \u0110\u00ecnh 1, qu\u1eadn Nam T\u1eeb Li\u00eam, H\u00e0 N\u1ed9i","BankName":"Techcombank","BankLogo":"\/images\/bank\/techcombank.png"},{"ID":"2215","Name":"Techcombank \u0110an Ph\u01b0\u1ee3ng","Phone":"(024) 3388 7889","Fax":"(024) 3388 7456","LongLat":"21.0840201,105.6709164","ProvinceID":"32","DistrictID":"28","Address":"135 T\u00e2y S\u01a1n, thi\u0323 tr\u00e2\u0301n Phu\u0300ng, \u0110an Ph\u01b0\u1ee3ng, H\u00e0 N\u1ed9i","BankName":"Techcombank","BankLogo":"\/images\/bank\/techcombank.png"},{"ID":"2228","Name":"Techcombank Tr\u1ea7n B\u00ecnh","Phone":"(024) 6287 0061","Fax":"(024) 6287 0038","LongLat":"21.0146138,105.7873643","ProvinceID":"32","DistrictID":"759","Address":"C\u0103n h\u1ed9 N3C1 nh\u00e0 s\u1ed1 3 khu nh\u00e0 \u1edf \u0111\u1ec3 b\u00e1n, Ph\u01b0\u1eddng M\u1ef9 \u0110\u00ecnh, Nam T\u1eeb Li\u00eam, H\u00e0 N\u1ed9i","BankName":"Techcombank","BankLogo":"\/images\/bank\/techcombank.png"},{"ID":"2241","Name":"Techcombank BigC","Phone":"+84 (24) 3783 0668","Fax":"+84 (24) 3783 0671","LongLat":"21.0156165,105.8007117","ProvinceID":"32","DistrictID":"2","Address":"16 L\u00f4 11 A. Khu \u0110\u00f4 th\u1ecb m\u1edbi Trung H\u00f2a, Trung Y\u00ean, ph\u01b0\u1eddng Trung H\u00f2a, Q. C\u1ea7u Gi\u1ea5y. HN","BankName":"Techcombank","BankLogo":"\/images\/bank\/techcombank.png"},{"ID":"2255","Name":"Techcombank Tr\u1ea7n Duy H\u01b0ng","Phone":"(024) 2225 0286","Fax":"(024) 2225 0288","LongLat":"21.0087081,105.7945381","ProvinceID":"32","DistrictID":"2","Address":"T\u1ea7ng 1 CT1, T\u00f2a nh\u00e0 Vimeco, Ho\u00e0ng Minh Gi\u00e1m k\u00e9o d\u00e0i, Trung H\u00f2a, C\u1ea7u Gi\u1ea5y, HN","BankName":"Techcombank","BankLogo":"\/images\/bank\/techcombank.png"},{"ID":"2276","Name":"Techcombank Hai B\u00e0 Tr\u01b0ng","Phone":"(024) 3972 5550","Fax":"(024) 3972 5551","LongLat":"21.0133411,105.851208","ProvinceID":"32","DistrictID":"5","Address":"9 T\u00f4 Hi\u1ebfn Th\u00e0nh, Hai B\u00e0 Tr\u01b0ng, H\u00e0 N\u1ed9i","BankName":"Techcombank","BankLogo":"\/images\/bank\/techcombank.png"},{"ID":"2277","Name":"Techcombank Kim Li\u00ean","Phone":"(024) 2222 9966","Fax":"(024) 2220 4296","LongLat":"21.0083873,105.8343435","ProvinceID":"32","DistrictID":"3","Address":"T\u00e2\u0300ng 2 B14, Ph\u1ea1m Ng\u1ecdc Th\u1ea1ch, P. Kim Li\u00ean, \u0110\u1ed1ng \u0110a, H\u00e0 N\u1ed9i","BankName":"Techcombank","BankLogo":"\/images\/bank\/techcombank.png"},{"ID":"2293","Name":"Techcombank Nguy\u1ec5n Duy Trinh","Phone":"(028) 3742 1439","Fax":"(028) 3742 0588","LongLat":"10.788588,106.7657178","ProvinceID":"33","DistrictID":"64","Address":"L1-03 T\u1ea7ng 1, Vincom Maximark Qu\u1eadn 2, t\u00f2a nh\u00e0 Homyland 2, s\u1ed1 307 Nguy\u1ec5n Duy Trinh, Ph\u01b0\u1eddng B\u00ecnh Tr\u01b0ng T\u00e2y, Qu\u1eadn 2, H\u1ed3 Ch\u00ed Minh","BankName":"Techcombank","BankLogo":"\/images\/bank\/techcombank.png"},{"ID":"2358","Name":"Techcombank \u0110\u1eb7ng V\u0103n Ng\u1eef","Phone":"(024) 6275 5337","Fax":"---","LongLat":"21.013905,105.8334159","ProvinceID":"32","DistrictID":"3","Address":"S\u1ed1 28 ph\u1ed1 Nam \u0110\u1ed3ng, ph\u01b0\u1eddng Nam \u0110\u1ed3ng, \u0110\u1ed1ng \u0110a, H\u00e0 N\u1ed9i","BankName":"Techcombank","BankLogo":"\/images\/bank\/techcombank.png"},{"ID":"2372","Name":"Techcombank Tr\u00e0ng An","Phone":"(024) 3932 9888","Fax":"(024) 3829 3666","LongLat":"20.9948295,105.8695813","ProvinceID":"32","DistrictID":"5","Address":"T\u1ea7ng 1, T4- Times City, 458 Minh Khai, Hai B\u00e0 Tr\u01b0ng, H\u00e0 N\u1ed9i","BankName":"Techcombank","BankLogo":"\/images\/bank\/techcombank.png"},{"ID":"2384","Name":"Techcombank L\u00f2 \u0110\u00fac","Phone":"(024) 3972 8116","Fax":"(024) 39723456","LongLat":"21.0132939,105.857865","ProvinceID":"32","DistrictID":"5","Address":"S\u1ed1 108 L\u00f2 \u0110\u00fac, Qu\u1eadn Hai B\u00e0 Tr\u01b0ng, TP H\u00e0 N\u1ed9i","BankName":"Techcombank","BankLogo":"\/images\/bank\/techcombank.png"},{"ID":"2385","Name":"Techcombank \u0110\u1ed1ng \u0110a","Phone":"(024) 3537 3586","Fax":"(024) 3537 3565","LongLat":"21.013658,105.819207","ProvinceID":"32","DistrictID":"3","Address":"208 Th\u00e1i H\u00e0, Qu\u1eadn \u0110\u1ed1ng \u0110a, H\u00e0 N\u1ed9i","BankName":"Techcombank","BankLogo":"\/images\/bank\/techcombank.png"},{"ID":"2392","Name":"Techcombank Ph\u1ea1m Ng\u1ecdc Th\u1ea1ch","Phone":"(028) 3827 5806","Fax":"(028) 3827 5805","LongLat":"10.7837974,106.6946102","ProvinceID":"33","DistrictID":"65","Address":"M\u1ed9t ph\u1ea7n t\u1ea7ng 1 (t\u1ea7ng tr\u1ec7t), T\u00f2a nh\u00e0 s\u1ed1 40 \u0111\u01b0\u1eddng Ph\u1ea1m Ng\u1ecdc Th\u1ea1ch, Ph\u01b0\u1eddng 6, Qu\u1eadn 3, H\u1ed3 Ch\u00ed Minh","BankName":"Techcombank","BankLogo":"\/images\/bank\/techcombank.png"},{"ID":"2393","Name":"Techcombank Th\u0103ng Long","Phone":"(024) 2220 8989","Fax":"(024) 2220 3646","LongLat":"21.0146681,105.8285938","ProvinceID":"32","DistrictID":"3","Address":"181 Nguy\u1ec5n L\u01b0\u01a1ng B\u1eb1ng, \u0110\u1ed1ng \u0110a, H\u00e0 N\u1ed9i","BankName":"Techcombank","BankLogo":"\/images\/bank\/techcombank.png"},{"ID":"2481","Name":"Techcombank Vi\u1ec7t H\u01b0ng","Phone":"(024) 3657 4404","Fax":"(024) 3657 4403","LongLat":"21.0627864,105.9083056","ProvinceID":"32","DistrictID":"22","Address":"Bi\u1ec7t th\u1ef1 A41-BT7 Khu \u0111\u00f4 th\u1ecb Vi\u1ec7t H\u01b0ng, Long Bi\u00ean, H\u00e0 N\u1ed9i","BankName":"Techcombank","BankLogo":"\/images\/bank\/techcombank.png"},{"ID":"2487","Name":"Techcombank \u0110\u00f4ng \u0110\u00f4","Phone":"(024) 6251 1032","Fax":"(024) 6251 1035","LongLat":"21.0071034,105.8021861","ProvinceID":"32","DistrictID":"1","Address":"T\u1ea7ng 1, T\u00f2a nh\u00e0 29 T2, \u0110\u01b0\u1eddng Ho\u00e0ng \u0110\u1ea1o Th\u00fay, C\u1ea7u Gi\u1ea5y, H\u00e0 N\u1ed9i","BankName":"Techcombank","BankLogo":"\/images\/bank\/techcombank.png"},{"ID":"2497","Name":"Techcombank B\u00e0 Tri\u1ec7u","Phone":"(024) 3976 0055","Fax":"(024) 3976 0057","LongLat":"21.0090571,105.8607507","ProvinceID":"32","DistrictID":"5","Address":"316 Tr\u1ea7n Kh\u00e1t Tr\u00e2n, Hai B\u00e0 Tr\u01b0ng, H\u00e0 N\u1ed9i","BankName":"Techcombank","BankLogo":"\/images\/bank\/techcombank.png"},{"ID":"2500","Name":"S\u1edf giao d\u1ecbch","Phone":"(024) 3944 6368","Fax":"(024) 3944 6387","LongLat":"21.0110677,105.8494833","ProvinceID":"32","DistrictID":"5","Address":"191 B\u00e0 Tri\u1ec7u, Hai B\u00e0 Tr\u01b0ng, H\u00e0 N\u1ed9i","BankName":"Techcombank","BankLogo":"\/images\/bank\/techcombank.png"},{"ID":"2503","Name":"Techcombank Kh\u00e2m Thi\u00ean","Phone":"(024) 3511 3096","Fax":"---","LongLat":"21.0198004,105.8344749","ProvinceID":"32","DistrictID":"3","Address":"228 Kh\u00e2m Thi\u00ean, \u0110\u1ed1ng \u0110a, H\u00e0 N\u1ed9i","BankName":"Techcombank","BankLogo":"\/images\/bank\/techcombank.png"},{"ID":"2527","Name":"Techcombank H\u00e0 Th\u00e0nh","Phone":"(024) 3863 9999","Fax":"(024) 3944 0101","LongLat":"21.0200614,105.8496988","ProvinceID":"32","DistrictID":"6","Address":"74 B\u00e0 Tri\u1ec7u, Ho\u00e0n Ki\u1ebfm, H\u00e0 N\u1ed9i","BankName":"Techcombank","BankLogo":"\/images\/bank\/techcombank.png"},{"ID":"2531","Name":"Techcombank Ho\u00e0ng C\u1ea7u","Phone":"(024) 6275 0087","Fax":"(024) 6275 0092","LongLat":"21.0167107,105.82364","ProvinceID":"32","DistrictID":"3","Address":"63 ph\u1ed1 Ho\u00e0ng C\u1ea7u, ph\u01b0\u1eddng \u00d4 Ch\u1ee3 D\u1eeba, qu\u1eadn \u0110\u1ed1ng \u0110a, H\u00e0 N\u1ed9i","BankName":"Techcombank","BankLogo":"\/images\/bank\/techcombank.png"},{"ID":"2552","Name":"Techcombank T\u1eeb Li\u00eam","Phone":"(024) 378 05197","Fax":"(024) 3780 5200","LongLat":"21.0550536,105.7320196","ProvinceID":"32","DistrictID":"42","Address":"40 Ph\u1ed1 Nh\u1ed5n, P. T\u00e2y T\u1ef1u, T\u1eeb Li\u00eam, H\u00e0 N\u1ed9i","BankName":"Techcombank","BankLogo":"\/images\/bank\/techcombank.png"},{"ID":"2574","Name":"Techcombank Nguy\u1ec5n Th\u01b0\u1ee3ng Hi\u1ec1n","Phone":"(08) 3550 1420","Fax":"(08) 3550 1419","LongLat":"10.8090006,106.685546","ProvinceID":"33","DistrictID":"73","Address":"T\u1ea7ng tr\u1ec7t v\u00e0 t\u1ea7ng l\u1eedng c\u0103n nh\u00e0 s\u1ed1 191A - 191B Ho\u00e0ng Hoa Th\u00e1m, Ph\u01b0\u1eddng 6, B\u00ecnh Th\u1ea1nh, H\u1ed3 Ch\u00ed Minh","BankName":"Techcombank","BankLogo":"\/images\/bank\/techcombank.png"},{"ID":"2577","Name":"Techcombank Ho\u00e0n Ki\u1ebfm","Phone":"(024) 3942 6868","Fax":"(024) 3942 8845","LongLat":"21.0227599,105.8472287","ProvinceID":"32","DistrictID":"6","Address":"72 Tr\u1ea7n H\u01b0ng \u0110\u1ea1o, Hoa\u0300n Ki\u00ea\u0301m, H\u00e0 N\u1ed9i","BankName":"Techcombank","BankLogo":"\/images\/bank\/techcombank.png"},{"ID":"2607","Name":"Techcombank L\u00fd Th\u01b0\u1eddng Ki\u1ec7t","Phone":"(024) 3943 0714","Fax":"(024) 3824 9877","LongLat":"21.019079,105.855373","ProvinceID":"32","DistrictID":"6","Address":"57A Phan Chu Trinh, Ho\u00e0n Ki\u1ebfm, H\u00e0 N\u1ed9i","BankName":"Techcombank","BankLogo":"\/images\/bank\/techcombank.png"},{"ID":"2630","Name":"Techcombank Nguy\u1ec5n Th\u1ecb \u0110\u1ecbnh","Phone":"(024) 6251 3015","Fax":"(024) 6251 3017","LongLat":"21.0064167,105.8056372","ProvinceID":"32","DistrictID":"2","Address":"T\u1ea7ng 1, T\u00f2a nh\u00e0 18T1 Khu \u0110\u00f4 Th\u1ecb Trung H\u00f2a Nh\u00e2n Ch\u00ednh, C\u1ea7u Gi\u1ea5y, H\u00e0 N\u1ed9i","BankName":"Techcombank","BankLogo":"\/images\/bank\/techcombank.png"},{"ID":"2643","Name":"Techcombank Ng\u1ecdc Kh\u00e1nh","Phone":"+84 (24) 3775 5386","Fax":"+84 (24) 3775 5385","LongLat":"21.0242387,105.8103397","ProvinceID":"32","DistrictID":"3","Address":"52 Nguy\u1ec5n Ch\u00ed Thanh, \u0110\u1ed1ng \u0110a, H\u00e0 N\u1ed9i","BankName":"Techcombank","BankLogo":"\/images\/bank\/techcombank.png"},{"ID":"2666","Name":"Techcombank Hu\u1ef3nh Th\u00fac Kh\u00e1ng","Phone":"(024 ) 73 000 999","Fax":" (024) 73 059 119","LongLat":"21.0191561,105.8105222","ProvinceID":"32","DistrictID":"3","Address":"\u0110\u1ecba ch\u1ec9: 21 Hu\u1ef3nh Th\u00fac Kh\u00e1ng, Ph\u01b0\u1eddng L\u00e1ng H\u1ea1, Q. \u0110\u1ed1ng \u0110a, TP. H\u00e0 N\u1ed9i","BankName":"Techcombank","BankLogo":"\/images\/bank\/techcombank.png"},{"ID":"2677","Name":"Techcombank C\u1eeda Nam","Phone":"(024) 3936 4455","Fax":"(024) 3936 4454","LongLat":"21.0264776,105.8419525","ProvinceID":"32","DistrictID":"6","Address":"67 ph\u1ed1 C\u1eeda Nam, ph\u01b0\u1eddng C\u1eeda Nam, Ho\u00e0n Ki\u1ebfm, H\u00e0 N\u1ed9i","BankName":"Techcombank","BankLogo":"\/images\/bank\/techcombank.png"},{"ID":"2713","Name":"Techcombank L\u00e1ng H\u1ea1","Phone":"(024) 3730 1968\/3730 1988","Fax":"(024) 3519 1137\/3519 1138","LongLat":"21.0143468,105.8136844","ProvinceID":"32","DistrictID":"3","Address":"T\u1ea7ng 1 \u2013 2, t\u00f2a nh\u00e0 101 L\u00e1ng H\u1ea1, \u0110\u1ed1ng \u0110a, H\u00e0 N\u1ed9i","BankName":"Techcombank","BankLogo":"\/images\/bank\/techcombank.png"},{"ID":"2741","Name":"Techcombank L\u00fd Th\u00e1i T\u1ed5","Phone":"(024) 3926 3405","Fax":"(024) 3926 3405","LongLat":"21.0296264,105.8550104","ProvinceID":"32","DistrictID":"6","Address":"30 L\u00fd Th\u00e1i T\u1ed5, Ho\u00e0n Ki\u1ebfm, H\u00e0 N\u1ed9i","BankName":"Techcombank","BankLogo":"\/images\/bank\/techcombank.png"},{"ID":"2748","Name":"Techcombank Ba \u0110\u00ecnh","Phone":"(024) 3724.5959","Fax":"(024) 3724.5858","LongLat":"21.0250829,105.8184292","ProvinceID":"32","DistrictID":"1","Address":"168 Ng\u1ecdc Kh\u00e1nh, Gi\u1ea3ng V\u00f5,, Ba \u0110\u00ecnh, H\u00e0 N\u1ed9i","BankName":"Techcombank","BankLogo":"\/images\/bank\/techcombank.png"},{"ID":"2760","Name":"Techcombank S\u00e0i \u0110\u1ed3ng","Phone":"(024) 3674 0667","Fax":"(024) 3674 0665","LongLat":"21.0348453,105.9127108","ProvinceID":"32","DistrictID":"22","Address":"C\u0103n h\u1ed9 6 Nh\u00e0 N01B, \u0110\u00f4 th\u1ecb m\u1edbi S\u00e0i \u0110\u1ed3ng, Long Bi\u00ean, H\u00e0 N\u1ed9i","BankName":"Techcombank","BankLogo":"\/images\/bank\/techcombank.png"},{"ID":"2767","Name":"Techcombank Kim M\u00e3","Phone":"024 3 734 5588","Fax":"024 3734 9091","LongLat":"21.0324827,105.8286899","ProvinceID":"32","DistrictID":"1","Address":"07 Kim M\u00e3, ph\u01b0\u1eddng Kim M\u00e3, Ba \u0110\u00ecnh, H\u00e0 N\u1ed9i","BankName":"Techcombank","BankLogo":"\/images\/bank\/techcombank.png"},{"ID":"2773","Name":"Techcombank B\u1edd H\u1ed3","Phone":"(024) 3938 2828","Fax":"(024) 3938 2829","LongLat":"21.030672,105.846617","ProvinceID":"32","DistrictID":"6","Address":"32 H\u00e0ng Da, ph\u01b0\u1eddng C\u1eeda \u0110\u00f4ng, Ho\u00e0n Ki\u1ebfm, H\u00e0 N\u1ed9i","BankName":"Techcombank","BankLogo":"\/images\/bank\/techcombank.png"},{"ID":"2798","Name":"Techcombank C\u1ea7u Gi\u1ea5y","Phone":"(024) 3226 2764\/65\/66","Fax":"(024) 3226 2765","LongLat":"21.0445411,105.7972693","ProvinceID":"32","DistrictID":"2","Address":"S\u1ed1 1\/196 Nguy\u1ec5n V\u0103n Huy\u00ean, t\u1ed5 20, ph\u01b0\u1eddng Quan Hoa, C\u1ea7u Gi\u1ea5y, H\u00e0 N\u1ed9i","BankName":"Techcombank","BankLogo":"\/images\/bank\/techcombank.png"},{"ID":"2822","Name":"Techcombank Phan V\u0103n Tr\u1ecb","Phone":"(028) 3516 0026","Fax":"(028) 3516 0028","LongLat":"10.8184231,106.6948277","ProvinceID":"33","DistrictID":"73","Address":"375A Phan V\u0103n Tr\u1ecb, Ph\u01b0\u1eddng 11, B\u00ecnh Th\u1ea1nh, H\u1ed3 Ch\u00ed Minh","BankName":"Techcombank","BankLogo":"\/images\/bank\/techcombank.png"},{"ID":"2849","Name":"Techcombank Nam H\u00e0 N\u1ed9i","Phone":"(024) 3566 7948","Fax":"(024) 3566 7945","LongLat":"20.9926184,105.8320648","ProvinceID":"32","DistrictID":"24","Address":"M\u1ed9t ph\u1ea7n T\u1ea7ng 01 \u0110\u01a1n nguy\u00ean II t\u00f2a nh\u00e0 ACCI t\u1ea1i s\u1ed1 210 L\u00ea Tro\u0323ng T\u1ea5n, ph\u01b0\u1eddng Kh\u01b0\u01a1ng Mai, Thanh Xu\u00e2n, H\u00e0 N\u1ed9i","BankName":"Techcombank","BankLogo":"\/images\/bank\/techcombank.png"},{"ID":"2852","Name":"Techcombank Trung Y\u00ean","Phone":"(024) 3783 5062","Fax":"(024) 3783 5065","LongLat":"21.0111849,105.7939903","ProvinceID":"32","DistrictID":"2","Address":"S\u1ed1 12, L\u00f4 1B khu \u0110\u00f4 th\u1ecb Trung Y\u00ean, Ph\u01b0\u1eddng Trung H\u00f2a, C\u1ea7u Gi\u1ea5y, H\u00e0 N\u1ed9i.","BankName":"Techcombank","BankLogo":"\/images\/bank\/techcombank.png"},{"ID":"2853","Name":"Techcombank H\u00e0 \u0110\u00f4ng","Phone":"(024) 3542 9666\/3542 9668","Fax":"(024) 35429667","LongLat":"20.9828584,105.7813337","ProvinceID":"32","DistrictID":"4","Address":"M\u1ed9t ph\u1ea7n di\u1ec7n t\u00edch t\u1ea7ng 1 t\u00f2a nh\u00e0 chung c\u01b0 CT1, L\u00e0ng Vi\u1ec7t Ki\u1ec1u Ch\u00e2u \u00c2u Euro land, khu \u0111\u00f4 th\u1ecb M\u1ed7 Lao, ph\u01b0\u1eddng M\u1ed9 Lao, H\u00e0 \u0110\u00f4ng, H\u00e0 N\u1ed9i","BankName":"Techcombank","BankLogo":"\/images\/bank\/techcombank.png"},{"ID":"2856","Name":"Techcombank Keangnam","Phone":"(024) 3 837 8999","Fax":"(024) 3837 8124","LongLat":"21.017079,105.7835944","ProvinceID":"32","DistrictID":"2","Address":"B101 T\u00f2a nh\u00e0 Keangnam, E6 Ph\u1ea1m H\u00f9ng, C\u1ea7u Gi\u1ea5y, H\u00e0 N\u1ed9i","BankName":"Techcombank","BankLogo":"\/images\/bank\/techcombank.png"},{"ID":"2913","Name":"Techcombank Ch\u00f9a L\u00e1ng","Phone":"(024) 3211 5725","Fax":"(024) 3211 5727","LongLat":"21.0235058,105.8044311","ProvinceID":"32","DistrictID":"3","Address":"126 ph\u00f4\u0301 Chu\u0300a La\u0301ng, P. La\u0301ng Th\u01b0\u01a1ng, \u0110\u1ed1ng \u0110a, H\u00e0 N\u1ed9i","BankName":"Techcombank","BankLogo":"\/images\/bank\/techcombank.png"},{"ID":"2928","Name":"Techcombank Gia \u0110\u1ecbnh","Phone":"(028) 3551 0410","Fax":"(028) 3551 0403","LongLat":"10.803982,106.6881301","ProvinceID":"33","DistrictID":"73","Address":"M\u1ed9t ph\u1ea7n t\u1ea7ng tr\u1ec7t, t\u1ea7ng l\u1eedng v\u00e0 t\u1ea7ng 2, t\u00f2a nh\u00e0 Q.Mobile, s\u1ed1 36 Phan \u0110\u0103ng L\u01b0u, B\u00ecnh Th\u1ea1nh, H\u1ed3 Ch\u00ed Minh","BankName":"Techcombank","BankLogo":"\/images\/bank\/techcombank.png"},{"ID":"2936","Name":"Techcombank T\u00e2n C\u1ea3ng","Phone":"(028) 3636 1300","Fax":"(028) 3636 1305","LongLat":"10.7961184,106.7033711","ProvinceID":"33","DistrictID":"73","Address":"T\u1ea7ng tr\u1ec7t, nh\u00e0 d\u1ecbch v\u1ee5 S\u1ed1 L2-SH.06, chung c\u01b0 Lanmark 2, (\u0111\u01b0\u1eddng \u0110i\u1ec7n Bi\u00ean Ph\u1ee7) , B\u00ecnh Th\u1ea1nh, H\u1ed3 Ch\u00ed Minh","BankName":"Techcombank","BankLogo":"\/images\/bank\/techcombank.png"},{"ID":"2948","Name":"Techcombank B\u00e1t \u0110\u00e0n","Phone":"(024) 3923 2932","Fax":"(024) 3923 2933","LongLat":"21.033814,105.8470944","ProvinceID":"32","DistrictID":"6","Address":"34 B\u00e1t \u0110\u00e0n, Ho\u00e0n Ki\u1ebfm, H\u00e0 N\u1ed9i","BankName":"Techcombank","BankLogo":"\/images\/bank\/techcombank.png"},{"ID":"3005","Name":"Techcombank L\u00fd Nam \u0110\u1ebf","Phone":"(024) 3747 5568","Fax":"(024) 3747 5569","LongLat":"21.030511,105.844105","ProvinceID":"32","DistrictID":"6","Address":"95F, L\u00fd Nam \u0110\u1ebf, Ho\u00e0n Ki\u1ebfm, H\u00e0 N\u1ed9i","BankName":"Techcombank","BankLogo":"\/images\/bank\/techcombank.png"},{"ID":"3034","Name":"Techcombank H\u00e0 N\u1ed9i","Phone":"(024) 3824 3941","Fax":"(024) 3825 0545","LongLat":"21.0362192,105.8527271","ProvinceID":"32","DistrictID":"6","Address":"15 \u0110\u00e0o Duy T\u1eeb, Ho\u00e0n Ki\u1ebfm, H\u00e0 N\u1ed9i","BankName":"Techcombank","BankLogo":"\/images\/bank\/techcombank.png"},{"ID":"3043","Name":"Ph\u00f2ng Giao d\u1ecbch Nguy\u1ec5n Kh\u00e1nh To\u00e0n","Phone":"(024) 6269 0205","Fax":"(024) 6269 0211","LongLat":"21.0226519,105.7901477","ProvinceID":"32","DistrictID":"2","Address":"101 l\u00f4 A2 - DN3, K\u0110T Nghi\u0303a \u0110\u00f4, C\u1ea7u Gi\u1ea5y, H\u00e0 N\u1ed9i","BankName":"Techcombank","BankLogo":"\/images\/bank\/techcombank.png"},{"ID":"3062","Name":"Techcombank \u0110\u1ed9i C\u1ea5n","Phone":"+ 84 (24) 3722 5318","Fax":"+84 (24) 3722 5320","LongLat":"21.0355131,105.8188682","ProvinceID":"32","DistrictID":"1","Address":"T\u1ea7ng 1, t\u00f2a nh\u00e0 HKC, s\u1ed1 285 \u0110\u1ed9i C\u1ea5n, P.Li\u1ec5u Giai, Ba \u0110\u00ecnh, H\u00e0 N\u1ed9i","BankName":"Techcombank","BankLogo":"\/images\/bank\/techcombank.png"},{"ID":"3070","Name":"Techcombank \u0110\u1ed3ng Xu\u00e2n","Phone":"(024) 3927 6868","Fax":"---","LongLat":"21.038464,105.848452","ProvinceID":"32","DistrictID":"6","Address":"S\u1ed1 62 H\u00e0ng Gi\u1ea5y, \u0110\u1ed3ng Xu\u00e2n, Ho\u00e0n Ki\u1ebfm, H\u00e0 N\u1ed9i","BankName":"Techcombank","BankLogo":"\/images\/bank\/techcombank.png"},{"ID":"3101","Name":"Techcombank L\u00ea V\u0103n Th\u1ecd","Phone":"(028) 3894 8100","Fax":"(028) 3894 8102","LongLat":"10.8520542,106.6560958","ProvinceID":"33","DistrictID":"74","Address":"S\u1ed1 534 L\u00ea V\u0103n Th\u1ecd, ph\u01b0\u1eddng 6, G\u00f2 V\u1ea5p, H\u1ed3 Ch\u00ed Minh","BankName":"Techcombank","BankLogo":"\/images\/bank\/techcombank.png"},{"ID":"3111","Name":"Techcombank Ho\u00e0ng Hoa Th\u00e1m","Phone":"024.22232468","Fax":"024 22232467","LongLat":"21.0404471,105.8246899","ProvinceID":"32","DistrictID":"23","Address":"141 Ho\u00e0ng Hoa Th\u00e1m Ba \u0110\u00ecnh H\u00e0 N\u1ed9i","BankName":"Techcombank","BankLogo":"\/images\/bank\/techcombank.png"},{"ID":"3162","Name":"Techcombank Nam An Kh\u00e1nh","Phone":"(024) 3293 9058","Fax":"---","LongLat":"21.0000232,105.7145801","ProvinceID":"32","DistrictID":"31","Address":"M\u1ed9t ph\u1ea7n di\u1ec7n t\u00edch t\u1ea7ng 1 l\u00f4 CT6, khu \u0111\u00f4 th\u1ecb Nam An Kh\u00e1nh, x\u00e3 An Kh\u00e1nh, Ho\u00e0i \u0110\u1ee9c, H\u00e0 N\u1ed9i","BankName":"Techcombank","BankLogo":"\/images\/bank\/techcombank.png"},{"ID":"3167","Name":"Techcombank Th\u1ee5y Khu\u00ea","Phone":"(024) 3728 2631","Fax":"(024) 3728 2633","LongLat":"21.0433359,105.8228804","ProvinceID":"32","DistrictID":"23","Address":"s\u1ed1 152 Th\u1ee5y Khu\u00ea, ph\u01b0\u1eddng Th\u1ee5y Khu\u00ea, qu\u1eadn T\u00e2y H\u1ed3, H\u00e0 N\u1ed9i","BankName":"Techcombank","BankLogo":"\/images\/bank\/techcombank.png"},{"ID":"3174","Name":"Techcombank C\u1eeda B\u1eafc","Phone":"(024) 6273 3023","Fax":"(024) 6273 3094","LongLat":"21.042873,105.842693","ProvinceID":"32","DistrictID":"1","Address":"S\u1ed1 nh\u00e0 70, C\u1eeda B\u1eafc, Ba \u0110\u00ecnh, H\u00e0 N\u1ed9i","BankName":"Techcombank","BankLogo":"\/images\/bank\/techcombank.png"},{"ID":"3194","Name":"Techcombank Ng\u1ecdc L\u00e2m","Phone":"024 3 873 7865;","Fax":"024 3 873 7856","LongLat":"21.0448412,105.8686635","ProvinceID":"32","DistrictID":"22","Address":"60 ph\u00f4\u0301 Ngo\u0323c L\u00e2m, Qu\u00e2\u0323n Long Bi\u00ean, HN","BankName":"Techcombank","BankLogo":"\/images\/bank\/techcombank.png"},{"ID":"3233","Name":"Techcombank Ch\u01b0\u01a1ng D\u01b0\u01a1ng","Phone":"(024) 3872 2222","Fax":" (024) 3872 2242","LongLat":"21.0465294,105.8780873","ProvinceID":"32","DistrictID":"22","Address":"412 Nguy\u1ec5n V\u0103n C\u1eeb, Long Bi\u00ean, H\u00e0 N\u1ed9i (To\u00e0 Nh\u00e0 C\u00f4ng ty Airimex - Airimex Tower)","BankName":"Techcombank","BankLogo":"\/images\/bank\/techcombank.png"},{"ID":"3277","Name":"Techcombank Nguy\u1ec5n C\u01a1 Th\u1ea1ch","Phone":"(024) 3201 0941\/3201 0942","Fax":"---","LongLat":"21.0356356,105.7609824","ProvinceID":"32","DistrictID":"759","Address":"T\u1ea7ng 1, NCC s\u1ed1 A1 (CT01), thu\u1ed9c D\u1ef1 \u00e1n Khu ch\u1ee9c n\u0103ng \u0111\u00f4 th\u1ecb Th\u00e0nh ph\u1ed1 Xanh, ph\u01b0\u1eddng C\u1ea7u Di\u1ec5n, qu\u1eadn Nam T\u1eeb Li\u00eam,  H\u00e0 N\u1ed9i","BankName":"Techcombank","BankLogo":"\/images\/bank\/techcombank.png"},{"ID":"3293","Name":"Techcombank T\u00e2y H\u1ed3","Phone":"024 3753 3535","Fax":"024 3759 2565","LongLat":"21.051066,105.808008","ProvinceID":"32","DistrictID":"2","Address":"110 La\u0323c Long Qu\u00e2n, T\u00e2y H\u00f4\u0300, HN","BankName":"Techcombank","BankLogo":"\/images\/bank\/techcombank.png"},{"ID":"3300","Name":"Techcombank Ng\u00f4 Gia T\u1ef1","Phone":"024 3652 5176","Fax":"024 3652 5175","LongLat":"21.056994,105.889805","ProvinceID":"32","DistrictID":"22","Address":"S\u1ed1 46 Ng\u00f4 Gia T\u1ef1, Qu\u1eadn Long Bi\u00ean, H\u00e0 N\u1ed9i","BankName":"Techcombank","BankLogo":"\/images\/bank\/techcombank.png"},{"ID":"3317","Name":"Techcombank Ho\u00e0ng Gia","Phone":"(024) 6664 1818","Fax":"---","LongLat":"21.003612,105.814552","ProvinceID":"32","DistrictID":"24","Address":"T\u1ea7ng B1 khu TTTM TP Ho\u00e0ng Gia (Royal City) 72 Nguy\u1ec5n Tr\u00e3i, Thanh Xu\u00e2n, H\u00e0 N\u1ed9i","BankName":"Techcombank","BankLogo":"\/images\/bank\/techcombank.png"},{"ID":"3340","Name":"Techcombank Xu\u00e2n Di\u1ec7u","Phone":"(024) 3718 5594","Fax":"(024) 3718 5584","LongLat":"21.0616722,105.8314378","ProvinceID":"32","DistrictID":"23","Address":"S\u1ed1 46 Xu\u00e2n Di\u1ec7u, ph\u01b0\u1eddng Qu\u1ea3ng An, T\u00e2y H\u1ed3, H\u00e0 N\u1ed9i","BankName":"Techcombank","BankLogo":"\/images\/bank\/techcombank.png"},{"ID":"3343","Name":"Techcombank L\u1ea1c Long Qu\u00e2n","Phone":"(024) 6258 1440","Fax":"(024) 6258 1439","LongLat":"21.064435,105.809751","ProvinceID":"32","DistrictID":"23","Address":"T\u1ea7ng 1 v\u00e0 2, s\u1ed1 531 L\u1ea1c Long Qu\u00e2n, T\u00e2y H\u1ed3, H\u00e0 N\u1ed9i","BankName":"Techcombank","BankLogo":"\/images\/bank\/techcombank.png"},{"ID":"3367","Name":"Techcombank Ninh Hi\u1ec7p","Phone":"(024) 3698 3362","Fax":"(024)3698 3361","LongLat":"21.0277644,105.8341598","ProvinceID":"32","DistrictID":"30","Address":"M\u1ed9t ph\u1ea7n t\u1ea7ng 1 Ng\u00f4i nh\u00e0 t\u1ea1i Th\u00f4n 8, Gia L\u00e2m, H\u00e0 N\u1ed9i","BankName":"Techcombank","BankLogo":"\/images\/bank\/techcombank.png"},{"ID":"3398","Name":"Techcombank S\u01a1n T\u00e2y","Phone":"(024) 3361 8668","Fax":"(024) 3361 8768","LongLat":"21.1247637,105.5015076","ProvinceID":"32","DistrictID":"25","Address":"269 - 271 Ch\u00f9a Th\u00f4ng, S\u01a1n T\u00e2y, H\u00e0 N\u1ed9i","BankName":"Techcombank","BankLogo":"\/images\/bank\/techcombank.png"},{"ID":"3420","Name":"Techcombank \u0110\u00f4ng Anh","Phone":"(024) 3965 5346","Fax":"(024) 3965 5347","LongLat":"21.1412072,105.8454125","ProvinceID":"32","DistrictID":"29","Address":"S\u1ed1 2 Cao L\u1ed7, Uy N\u1ed7, \u0110\u00f4ng Anh, H\u00e0 N\u1ed9i","BankName":"Techcombank","BankLogo":"\/images\/bank\/techcombank.png"},{"ID":"3442","Name":"Techcombank N\u1ed9i B\u00e0i","Phone":"(024) 584 0538","Fax":"(024) 584 0539","LongLat":"21.2196606,105.8034468","ProvinceID":"32","DistrictID":"37","Address":"Khu \u0111\u1ea5t s\u1ed1 8, C\u1ea3ng h\u00e0ng kh\u00f4ng Qu\u1ed1c t\u1ebf N\u1ed9i B\u00e0i, S\u00f3c S\u01a1n, H\u00e0 N\u1ed9i","BankName":"Techcombank","BankLogo":"\/images\/bank\/techcombank.png"},{"ID":"3448","Name":"Techcombank Ph\u1ee7 L\u1ed7","Phone":"(024) 3884 9305","Fax":"(024) 38849306","LongLat":"21.198051,105.840135","ProvinceID":"32","DistrictID":"37","Address":"S\u1ed1 148, \u0111\u01b0\u1eddng 2, x\u00e3 Ph\u1ee7 L\u1ed7, huy\u1ec7n S\u00f3c S\u01a1n, H\u00e0 N\u1ed9i","BankName":"Techcombank","BankLogo":"\/images\/bank\/techcombank.png"},{"ID":"3449","Name":"Techcombank Nh\u00e0 ga T2","Phone":"(024) 3584 4371","Fax":"---","LongLat":"21.2187149,105.8041709","ProvinceID":"32","DistrictID":"37","Address":"E05K2-2, Khu v\u1ef1c c\u00f4ng c\u1ed9ng T\u1ea7ng 1, Nh\u00e0 ga H\u00e0nh kh\u00e1ch T2, S\u00e2n bay qu\u1ed1c t\u1ebf N\u1ed9i B\u00e0i, Ph\u00fa Minh, S\u00f3c S\u01a1n, H\u00e0 N\u1ed9i, S\u00f3c S\u01a1n, H\u00e0 N\u1ed9i","BankName":"Techcombank","BankLogo":"\/images\/bank\/techcombank.png"},{"ID":"3472","Name":"Techcombank Xu\u00e2n Mai","Phone":"(024) 3724954","Fax":"(024) 3724953","LongLat":"20.90033,105.578998","ProvinceID":"32","DistrictID":"27","Address":"S\u1ed1 nh\u00e0 51, T\u1ed5 6, Khu Xu\u00e2n H\u00e0, Th\u1ecb Tr\u1ea5n Xu\u00e2n Mai, Ch\u01b0\u01a1ng M\u1ef9, H\u00e0 N\u1ed9i","BankName":"Techcombank","BankLogo":"\/images\/bank\/techcombank.png"},{"ID":"3480","Name":"Techcombank Ho\u00e0ng Qu\u1ed1c Vi\u1ec7t","Phone":"(024) 3748 0412","Fax":"(024) 3755 6565","LongLat":"21.0464404,105.7958367","ProvinceID":"32","DistrictID":"2","Address":"98 Ho\u00e0ng Qu\u1ed1c Vi\u1ec7t, C\u1ea7u Gi\u1ea5y, H\u00e0 N\u1ed9i","BankName":"Techcombank","BankLogo":"\/images\/bank\/techcombank.png"},{"ID":"3577","Name":"Techcombank L\u0129nh Nam","Phone":"(024) 3632 1265","Fax":"(024) 3632 1260","LongLat":"20.9950592,105.8618104","ProvinceID":"32","DistrictID":"5","Address":"18 Tam Trinh, Minh Khai, Hai B\u00e0 Tr\u01b0ng, H\u00e0 N\u1ed9i","BankName":"Techcombank","BankLogo":"\/images\/bank\/techcombank.png"},{"ID":"4707","Name":"Techcombank L\u00ea V\u0103n S\u1ef9","Phone":"(028) 3991 5968","Fax":"(028) 3991 5984","LongLat":null,"ProvinceID":"33","DistrictID":"75","Address":"S\u1ed1 184 A \u0111\u01b0\u1eddng L\u00ea V\u0103n S\u1ef9, Ph\u00fa Nhu\u1eadn, H\u1ed3 Ch\u00ed Minh","BankName":"Techcombank","BankLogo":"\/images\/bank\/techcombank.png"},{"ID":"5878","Name":"Techcombank Y\u00ean B\u00e1i","Phone":"(0216) 389 3639","Fax":"(0216) 389 3739","LongLat":"21.7151152,104.9049108","ProvinceID":"94","DistrictID":"681","Address":"806 \u0111\u01b0\u1eddng \u0110i\u1ec7n Bi\u00ean, Th\u00e0nh ph\u1ed1 Y\u00ean B\u00e1i, Y\u00ean B\u00e1i","BankName":"Techcombank","BankLogo":"\/images\/bank\/techcombank.png"},{"ID":"5893","Name":"Techcombank V\u0129nh Y\u00ean  ","Phone":"0211 384 7299","Fax":"0211 384 7300","LongLat":"21.3073703,105.5930239","ProvinceID":"93","DistrictID":"672","Address":"TDP Nguy\u1ec5n Th\u00e1i H\u1ecdc, ph\u01b0\u1eddng Ng\u00f4 Quy\u1ec1n, th\u00e0nh ph\u1ed1 V\u0129nh Y\u00ean, t\u1ec9nh V\u0129nh Ph\u00fac","BankName":"Techcombank","BankLogo":"\/images\/bank\/techcombank.png"},{"ID":"5894","Name":"Techcombank V\u0129nh Ph\u00fac","Phone":"0211 384 7297","Fax":"0211 371 2368","LongLat":"21.315726,105.6248821","ProvinceID":"93","DistrictID":"672","Address":"T\u00f2a nh\u00e0 Vi\u1ec7t \u0110\u1ee9c Finalcial s\u1ed1 8 \u0111\u01b0\u1eddng T\u00f4n \u0110\u1ee9c Th\u1eafng, Khai Quang, Th\u00e0nh ph\u1ed1 V\u0129nh Y\u00ean, V\u0129nh Ph\u00fac","BankName":"Techcombank","BankLogo":"\/images\/bank\/techcombank.png"},{"ID":"5895","Name":"Techcombank Ph\u00fac Y\u00ean","Phone":"0211 351 1306","Fax":"0211 351 1304","LongLat":"21.231289,105.703496","ProvinceID":"93","DistrictID":"673","Address":"256 H\u00f9ng V\u01b0\u01a1ng, Th\u1ecb x\u00e3 Ph\u00fac Y\u00ean, V\u0129nh Ph\u00fac","BankName":"Techcombank","BankLogo":"\/images\/bank\/techcombank.png"},{"ID":"5928","Name":"Techcombank V\u0129nh Long","Phone":"(0270) 385 4999","Fax":"(0270) 385 4888","LongLat":"10.245035,105.9778508","ProvinceID":"92","DistrictID":"664","Address":"3F + 3G \u0111\u01b0\u1eddng H\u01b0ng \u0110\u1ea1o V\u01b0\u01a1ng, V\u0129nh Long, V\u0129nh Long","BankName":"Techcombank","BankLogo":"\/images\/bank\/techcombank.png"},{"ID":"5943","Name":"Techcombank Ti\u1ec1n Giang","Phone":"(0273) 397 3979","Fax":"(0273) 397 7656","LongLat":"10.3576102,106.3668666","ProvinceID":"89","DistrictID":"641","Address":"S\u1ed1 44 - 46 \u0110\u01b0\u1eddng L\u00ea L\u1ee3i, Ph\u01b0\u1eddng 1, Th\u00e0nh ph\u1ed1 M\u1ef9 Tho, Ti\u1ec1n Giang","BankName":"Techcombank","BankLogo":"\/images\/bank\/techcombank.png"},{"ID":"5978","Name":"Techcombank Hu\u1ebf","Phone":"0234 388 3333","Fax":"0234 388 3337","LongLat":"16.459641,107.5911924","ProvinceID":"88","DistrictID":"631","Address":"24 L\u00fd Th\u01b0\u1eddng Ki\u1ec7t, Th\u00e0nh ph\u1ed1 Hu\u1ebf, Th\u1eeba Thi\u00ean Hu\u1ebf","BankName":"Techcombank","BankLogo":"\/images\/bank\/techcombank.png"},{"ID":"5979","Name":"Techcombank \u0110\u00f4ng Ba ","Phone":"(0234) 357 2332","Fax":"(0234) 357 2555","LongLat":"16.4697481,107.5861535","ProvinceID":"88","DistrictID":"631","Address":"91 Tr\u1ea7n H\u01b0ng \u0110\u1ea1o,Ph\u01b0\u1eddng Ph\u00fa H\u00f2a, Th\u00e0nh ph\u1ed1 Hu\u1ebf, Th\u1eeba Thi\u00ean Hu\u1ebf","BankName":"Techcombank","BankLogo":"\/images\/bank\/techcombank.png"},{"ID":"6001","Name":"Techcombank Thanh H\u00f3a","Phone":"(0237) 385 8999","Fax":"(0237) 372 7086","LongLat":"19.8096345,105.7772837","ProvinceID":"87","DistrictID":"621","Address":"Gian h\u00e0ng s\u1ed1 L1 - 03B v\u00e0 L2 - 11B t\u1ea1i TTTM Vincom Plaza s\u1ed1 27 Tr\u1ea7n Ph\u00fa , Thanh H\u00f3a, Thanh H\u00f3a","BankName":"Techcombank","BankLogo":"\/images\/bank\/techcombank.png"},{"ID":"6002","Name":"Techcombank Ch\u1ee3 T\u00e2y Th\u00e0nh","Phone":"(0237) 372 7083","Fax":"(0237) 372 7082","LongLat":"19.8036294,105.769029","ProvinceID":"87","DistrictID":"621","Address":"215 Nguy\u1ec5n Tr\u00e3i, ph\u01b0\u1eddng T\u00e2n S\u01a1n, Th\u00e0nh ph\u1ed1 Thanh H\u00f3a, Thanh H\u00f3a","BankName":"Techcombank","BankLogo":"\/images\/bank\/techcombank.png"},{"ID":"6014","Name":"Techcombank Ph\u1ed5 Y\u00ean","Phone":"(0208) 625 5678","Fax":"---","LongLat":"21.4148952,105.8731832","ProvinceID":"86","DistrictID":"592","Address":"Ti\u1ec3u khu 4, Th\u1ecb tr\u1ea5n Ba H\u00e0ng, , Huy\u1ec7n Ph\u1ed5 Y\u00ean, Th\u00e1i Nguy\u00ean","BankName":"Techcombank","BankLogo":"\/images\/bank\/techcombank.png"},{"ID":"6015","Name":"Techcombank Th\u00e1i Nguy\u00ean","Phone":"(0208) 375 3989","Fax":"(0208) 375 5858","LongLat":"21.5925239,105.8343867","ProvinceID":"86","DistrictID":"595","Address":"64 Ho\u00e0ng V\u0103n Th\u1ee5, Th\u00e1i Nguy\u00ean, Th\u00e0nh ph\u1ed1 Th\u00e1i Nguy\u00ean, Th\u00e1i Nguy\u00ean","BankName":"Techcombank","BankLogo":"\/images\/bank\/techcombank.png"},{"ID":"6016","Name":"Techcombank Gang Th\u00e9p","Phone":"(0208) 373 2658","Fax":"---","LongLat":"21.5938521,105.8401756","ProvinceID":"86","DistrictID":"595","Address":"S\u1ed1 1 C\u00e1ch M\u1ea1ng Th\u00e1ng T\u00e1m, T\u1ed5 14, Ph\u1ed1 10, Th\u00e1i Nguy\u00ean, Th\u00e1i Nguy\u00ean","BankName":"Techcombank","BankLogo":"\/images\/bank\/techcombank.png"},{"ID":"6017","Name":"Techcombank \u0110\u1ea1i T\u1eeb","Phone":"(0208) 392 4688","Fax":"(0208) 392 4868","LongLat":"21.6356739,105.6471178","ProvinceID":"86","DistrictID":"589","Address":"TT thi\u0323 tr\u00e2\u0301n H\u00f9ng S\u01a1n, Huy\u1ec7n \u0110\u1ea1i T\u1eeb, Th\u00e1i Nguy\u00ean","BankName":"Techcombank","BankLogo":"\/images\/bank\/techcombank.png"},{"ID":"6022","Name":"Techcombank Th\u00e1i B\u00ecnh","Phone":"(0227) 364 5477","Fax":"(0227) 364 5474","LongLat":"20.4455237,106.3371427","ProvinceID":"85","DistrictID":"588","Address":"TTTM Vincom Plaza L\u00fd B\u00f4n, s\u1ed1 46 \u0111\u01b0\u1eddng L\u00fd B\u00f4n, ph\u01b0\u1eddng \u0110\u1ec1 Th\u00e1m, Th\u00e0nh ph\u1ed1 Th\u00e1i B\u00ecnh, Th\u00e1i B\u00ecnh","BankName":"Techcombank","BankLogo":"\/images\/bank\/techcombank.png"},{"ID":"6041","Name":"Techcombank T\u00e2y Ninh","Phone":"(0276) 364 7777","Fax":"(0276) 362 2736","LongLat":"11.3103753,106.1073684","ProvinceID":"84","DistrictID":"580","Address":"S\u1ed1 366-368 \u0111\u01b0\u1eddng 30\/4, ph\u01b0\u1eddng 3, Th\u00e0nh ph\u1ed1 T\u00e2y Ninh, T\u00e2y Ninh","BankName":"Techcombank","BankLogo":"\/images\/bank\/techcombank.png"},{"ID":"6044","Name":"Techcombank S\u00f3c Tr\u0103ng","Phone":"(0299) 362 7990","Fax":"(0299) 362 7993","LongLat":"9.5980216,105.9636534","ProvinceID":"82","DistrictID":"560","Address":"201-203 Ph\u00fa l\u1ee3i, Ph\u01b0\u1eddng 2, Th\u00e0nh ph\u1ed1 S\u00f3c Tr\u0103ng, S\u00f3c Tr\u0103ng","BankName":"Techcombank","BankLogo":"\/images\/bank\/techcombank.png"},{"ID":"6052","Name":"Techcombank U\u00f4ng B\u00ed","Phone":"(0203) 356 6992","Fax":"(0203) 356 6958","LongLat":"21.034479,106.7700934","ProvinceID":"80","DistrictID":"539","Address":"S\u1ed1 470 Quang Trung, Th\u00e0nh ph\u1ed1 U\u00f4ng B\u00ed, Qu\u1ea3ng Ninh","BankName":"Techcombank","BankLogo":"\/images\/bank\/techcombank.png"},{"ID":"6053","Name":"Techcombank M\u00f3ng C\u00e1i","Phone":"(0203) 377 7088","Fax":"(0203) 377 7077","LongLat":"21.5289887,107.9695987","ProvinceID":"80","DistrictID":"537","Address":"10 \u0110\u01b0\u1eddng H\u00f9ng V\u01b0\u01a1ng, Th\u00e0nh ph\u1ed1 M\u00f3ng C\u00e1i, Qu\u1ea3ng Ninh","BankName":"Techcombank","BankLogo":"\/images\/bank\/techcombank.png"},{"ID":"6054","Name":"Techcombank Qu\u1ea3ng Ninh","Phone":"(0203) 382 0966","Fax":"(0203) 382 0967","LongLat":"20.9502012,107.0879032","ProvinceID":"80","DistrictID":"536","Address":"Gian s\u1ed1 L1-19, L2-10B, T\u1ea7ng L1, L2, Trung t\u00e2m th\u01b0\u01a1ng m\u1ea1i Vincom Center \u2013 H\u1ea1 Long, Khu c\u1ed9t \u0111\u1ed3ng h\u1ed3, Ph\u01b0\u1eddng B\u1ea1ch \u0110\u1eb1ng, Th\u00e0nh ph\u1ed1 H\u1ea1 Long, Qu\u1ea3ng Ninh","BankName":"Techcombank","BankLogo":"\/images\/bank\/techcombank.png"},{"ID":"6055","Name":"Techcombank H\u1ea1 Long","Phone":"(0203) 361 1946","Fax":"(0203) 383 1033","LongLat":"20.9778846,107.0100438","ProvinceID":"80","DistrictID":"536","Address":"S\u1ed1 283 t\u1ed5 4 Khu ph\u1ed1 4, ph\u01b0\u1eddng Gi\u1ebfng \u0110\u00e1y, Th\u00e0nh ph\u1ed1 H\u1ea1 Long, Qu\u1ea3ng Ninh","BankName":"Techcombank","BankLogo":"\/images\/bank\/techcombank.png"},{"ID":"6056","Name":"Techcombank C\u1ea9m Ph\u1ea3","Phone":"(0203) 393 9866","Fax":"(0203) 393 9877","LongLat":"21.0122264,107.2794127","ProvinceID":"80","DistrictID":"538","Address":"180 - 182 Tr\u1ea7n Ph\u00fa, C\u1ea9m Th\u00e0nh, Th\u00e0nh ph\u1ed1 C\u1ea9m Ph\u1ea3, Qu\u1ea3ng Ninh","BankName":"Techcombank","BankLogo":"\/images\/bank\/techcombank.png"},{"ID":"6090","Name":"Techcombank Ph\u1ea1m Th\u00e1i B\u01b0\u1eddng","Phone":"(0270) 3880 333","Fax":"(0270) 3880 334","LongLat":"10.2460306,105.9771986","ProvinceID":"92","DistrictID":"664","Address":"Gian L1-06, t\u1ea7ng 1, TTTM Vincom Plaza V\u0129nh Long, s\u1ed1 55, Ph\u1ea1m Th\u00e1i B\u01b0\u1eddng, V\u0129nh Long, V\u0129nh Long","BankName":"Techcombank","BankLogo":"\/images\/bank\/techcombank.png"},{"ID":"6091","Name":"Techcombank Qu\u1ea3ng Ng\u00e3i","Phone":"(0255) 371 7999","Fax":"(0255) 371 7998","LongLat":"15.120246,108.80553","ProvinceID":"79","DistrictID":"525","Address":"495 Quang Trung,P Nguy\u1ec5n Nghi\u00eam, Th\u00e0nh ph\u1ed1 Qu\u1ea3ng Ng\u00e3i, Qu\u1ea3ng Ng\u00e3i","BankName":"Techcombank","BankLogo":"\/images\/bank\/techcombank.png"},{"ID":"6125","Name":"Techcombank Qu\u1ea3ng Nam","Phone":"(0235) 381 8989","Fax":"(0235) 381 8998","LongLat":"15.571859,108.4847009","ProvinceID":"78","DistrictID":"511","Address":"S\u1ed1 84 Phan Chu Trinh, Ph\u01b0\u01a1\u0300ng An My\u0303, Th\u00e0nh ph\u1ed1 Tam K\u1ef3, Qu\u1ea3ng Nam","BankName":"Techcombank","BankLogo":"\/images\/bank\/techcombank.png"},{"ID":"6126","Name":"Techcombank H\u1ed9i An","Phone":"(0235) 391 7888","Fax":"---","LongLat":"15.8770899,108.326763","ProvinceID":"78","DistrictID":"510","Address":"S\u00f4\u0301 554 Hai B\u00e0 Tr\u01b0ng, Ph\u01b0\u1eddng C\u1ea9m Ph\u00f4, Th\u00e0nh ph\u1ed1 H\u1ed9i An, Qu\u1ea3ng Nam","BankName":"Techcombank","BankLogo":"\/images\/bank\/techcombank.png"},{"ID":"6133","Name":"Techcombank Vi\u1ec7t Tr\u00ec","Phone":"0210 381 5027","Fax":"0210 0381 5028","LongLat":"21.317682,105.388477","ProvinceID":"75","DistrictID":"476","Address":"1961 \u0110\u1ea1i l\u1ed9 H\u00f9ng V\u01b0\u01a1ng, ph\u01b0\u1eddng Gia C\u1ea9m, Th\u00e0nh ph\u1ed1 Vi\u1ec7t Tr\u00ec, Ph\u00fa Th\u1ecd","BankName":"Techcombank","BankLogo":"\/images\/bank\/techcombank.png"},{"ID":"6134","Name":"Techcombank H\u00f2a Phong","Phone":"0210 625 1868","Fax":"0210 625 1869","LongLat":"21.3283394,105.3884298","ProvinceID":"75","DistrictID":"476","Address":"89 H\u00f2a Phong- N\u00f4ng Trang, Th\u00e0nh ph\u1ed1 Vi\u1ec7t Tr\u00ec, Ph\u00fa Th\u1ecd","BankName":"Techcombank","BankLogo":"\/images\/bank\/techcombank.png"},{"ID":"6137","Name":"Techcombank Ninh B\u00ecnh","Phone":"(0229) 388 8369","Fax":"(0229) 389 3078","LongLat":"20.2589833,105.9702632","ProvinceID":"73","DistrictID":"456","Address":"848 Tr\u1ea7n H\u01b0ng \u0110\u1ea1o, ph\u01b0\u1eddng T\u00e2n Th\u00e0nh, Th\u00e0nh ph\u1ed1 Ninh B\u00ecnh, Ninh B\u00ecnh","BankName":"Techcombank","BankLogo":"\/images\/bank\/techcombank.png"},{"ID":"6156","Name":"Techcombank Di\u1ec5n Ch\u00e2u","Phone":"(0238) 362 3988","Fax":"(0238) 362 3989","LongLat":"18.979522,105.5980547","ProvinceID":"72","DistrictID":"433","Address":"TTTM Di\u1ec5n Ch\u00e2u - Kh\u1ed1i 4, Th\u1ecb tr\u1ea5n Di\u1ec5n Ch\u00e2u, Huy\u1ec7n Di\u1ec5n Ch\u00e2u, Ngh\u1ec7 An","BankName":"Techcombank","BankLogo":"\/images\/bank\/techcombank.png"},{"ID":"6157","Name":"Techcombank Ngh\u1ec7 An","Phone":"(0238) 358 8328","Fax":"(0238) 358 8329","LongLat":"18.6754857,105.6746666","ProvinceID":"72","DistrictID":"447","Address":"T\u1ea7ng 1 t\u00f2a nh\u00e0 CT1A Handico 30 Quang Trung, Th\u00e0nh ph\u1ed1 Vinh, Ngh\u1ec7 An","BankName":"Techcombank","BankLogo":"\/images\/bank\/techcombank.png"},{"ID":"6158","Name":"Techcombank Nguy\u1ec5n S\u1ef9 S\u00e1ch","Phone":"(0238) 3560327","Fax":"(0238) 356 0329","LongLat":"18.6865569,105.6782439","ProvinceID":"72","DistrictID":"447","Address":"S\u1ed1 19, Nguy\u1ec5n S\u1ef9 S\u00e1ch, Th\u00e0nh ph\u1ed1 Vinh, Ngh\u1ec7 An","BankName":"Techcombank","BankLogo":"\/images\/bank\/techcombank.png"},{"ID":"6159","Name":"Techcombank B\u1ebfn Th\u1ee7y","Phone":"(0238) 355 1347","Fax":"(0238) 355 1349","LongLat":"18.6518136,105.7009765","ProvinceID":"72","DistrictID":"447","Address":"S\u1ed1 119 \u0110\u01b0\u1eddng Nguy\u1ec5n Du, Ph\u01b0\u1eddng Trung \u0110\u00f4, Th\u00e0nh ph\u1ed1 Vinh, Ngh\u1ec7 An","BankName":"Techcombank","BankLogo":"\/images\/bank\/techcombank.png"},{"ID":"6189","Name":"Techcombank Tr\u1ea7n H\u01b0ng \u0110\u1ea1o","Phone":"(0228) 352 8885","Fax":"(0228) 352 8887","LongLat":"20.4280005,106.1741916","ProvinceID":"71","DistrictID":"430","Address":"257 Tr\u1ea7n H\u01b0ng \u0110\u1ea1o, P. B\u00e0 Tri\u1ec7u, Th\u00e0nh ph\u1ed1 Nam \u0110\u1ecbnh, Nam \u0110\u1ecbnh","BankName":"Techcombank","BankLogo":"\/images\/bank\/techcombank.png"},{"ID":"6190","Name":"Techcombank Nam \u0110\u1ecbnh","Phone":"(0228) 352 8686","Fax":"(0228) 352 8689","LongLat":"20.4318512,106.1766773","ProvinceID":"71","DistrictID":"430","Address":"222 Quang Trung, Th\u00e0nh ph\u1ed1 Nam \u0110\u1ecbnh, Nam \u0110\u1ecbnh","BankName":"Techcombank","BankLogo":"\/images\/bank\/techcombank.png"},{"ID":"6217","Name":"Techcombank Long An ","Phone":"(0272) 352 5788","Fax":"(0272) 352 5899","LongLat":"10.5381126,106.4054346","ProvinceID":"70","DistrictID":"420","Address":"103A H\u00f9ng V\u01b0\u01a1ng ,P.2, Th\u00e0nh ph\u1ed1 T\u00e2n An, Long An","BankName":"Techcombank","BankLogo":"\/images\/bank\/techcombank.png"},{"ID":"6269","Name":"Techcombank L\u00e0o Cai ","Phone":"0214 382 2595","Fax":"0214 382 2598","LongLat":"22.5004003,103.9659031","ProvinceID":"69","DistrictID":"406","Address":"002 Ho\u00e0ng Li\u00ean, P. C\u1ed1c L\u1ebfu, Th\u00e0nh ph\u1ed1 L\u00e0o Cai, L\u00e0o Cai","BankName":"Techcombank","BankLogo":"\/images\/bank\/techcombank.png"},{"ID":"6270","Name":"Techcombank B\u1eafc C\u01b0\u1eddng","Phone":"0214 383 0655","Fax":"0214 383 0660","LongLat":"22.4498764,103.9991369","ProvinceID":"69","DistrictID":"406","Address":"14 \u0111\u01b0\u1eddng Tr\u1ea7n H\u01b0ng \u0110\u1ea1o, L\u00e0o Cai, L\u00e0o Cai","BankName":"Techcombank","BankLogo":"\/images\/bank\/techcombank.png"},{"ID":"6271","Name":"Techcombank Cam \u0110\u01b0\u1eddng","Phone":"(0214) 375 8358","Fax":"(0214) 375 8356","LongLat":"22.4214586,104.0173834","ProvinceID":"69","DistrictID":"406","Address":"S\u1ed1 636 Ho\u00e0ng Qu\u1ed1c Vi\u1ec7t, Ph\u01b0\u1eddng Pom H\u00e1n, Th\u00e0nh ph\u1ed1 L\u00e0o Cai, L\u00e0o Cai","BankName":"Techcombank","BankLogo":"\/images\/bank\/techcombank.png"},{"ID":"6302","Name":"Techcombank L\u1ea1ng S\u01a1n  ","Phone":"(0205) 371 3968","Fax":"(0205)  713 986","LongLat":"21.8556974,106.7563479","ProvinceID":"68","DistrictID":"397","Address":"89 Tr\u1ea7n \u0110\u0103ng Ninh, Kh\u1ed1i 3, Ph\u01b0\u1eddng Tam Thanh, Th\u00e0nh ph\u1ed1 L\u1ea1ng S\u01a1n, L\u1ea1ng S\u01a1n","BankName":"Techcombank","BankLogo":"\/images\/bank\/techcombank.png"},{"ID":"6303","Name":"Techcombank Ho\u00e0ng V\u0103n Th\u1ee5","Phone":"0205 389 8298","Fax":"---","LongLat":"21.8503413,106.7605412","ProvinceID":"68","DistrictID":"397","Address":"27 Nguy\u1ec5n Du, Ph\u01b0\u1eddng V\u0129nh Tr\u1ea1i, Th\u00e0nh ph\u1ed1 L\u1ea1ng S\u01a1n, L\u1ea1ng S\u01a1n","BankName":"Techcombank","BankLogo":"\/images\/bank\/techcombank.png"},{"ID":"6304","Name":"Techcombank \u0110\u1ed3ng \u0110\u0103ng","Phone":"(0205) 371 3968","Fax":"---","LongLat":"21.9614339,106.702825","ProvinceID":"68","DistrictID":"389","Address":"S\u1ed1 96 Khu Nam Quan, Th\u1ecb tr\u1ea5n \u0110\u1ed3ng \u0110\u0103ng, Huy\u1ec7n Cao L\u1ed9c, L\u1ea1ng S\u01a1n","BankName":"Techcombank","BankLogo":"\/images\/bank\/techcombank.png"},{"ID":"6311","Name":"Techcombank L\u00e2m \u0110\u1ed3ng","Phone":"(0263) 353 3686","Fax":"(0263) 358 6979","LongLat":"11.936356,108.43314","ProvinceID":"67","DistrictID":"683","Address":"S\u1ed1 34A \u0111\u01b0\u1eddng Tr\u1ea7n Ph\u00fa, ph\u01b0\u1eddng 3, Th\u00e0nh ph\u1ed1 \u0110\u00e0 L\u1ea1t, L\u00e2m \u0110\u1ed3ng","BankName":"Techcombank","BankLogo":"\/images\/bank\/techcombank.png"},{"ID":"6334","Name":"Techcombank Ki\u00ean Giang","Phone":"0297 377 6868","Fax":"0297 377 6869","LongLat":"10.0032785,105.0809661","ProvinceID":"64","DistrictID":"369","Address":"Gian L1-04 t\u1ea7ng 1, TTTM Vincom R\u1ea1ch Gi\u00e1, l\u00f4 A12, \u0111\u01b0\u1eddng C\u00f4 B\u1eafc, khu ph\u1ed1 1, Ph\u01b0\u1eddng V\u0129nh B\u1ea3o, R\u1ea1ch Gi\u00e1, Ki\u00ean Giang","BankName":"Techcombank","BankLogo":"\/images\/bank\/techcombank.png"},{"ID":"6351","Name":"Techcombank V\u0129nh H\u1ea3i","Phone":"(0258) 395 1363","Fax":"(0258) 383 5445","LongLat":"12.2915701,109.1871661","ProvinceID":"63","DistrictID":"354","Address":"S\u1ed1 78, \u0111\u01b0\u1eddng 2 th\u00e1ng 4, ph\u01b0\u1eddng V\u0129nh H\u1ea3i, Th\u00e0nh ph\u1ed1 Nha Trang, Kh\u00e1nh H\u00f2a","BankName":"Techcombank","BankLogo":"\/images\/bank\/techcombank.png"},{"ID":"6352","Name":"Techcombank Nha Trang","Phone":"(0258)  381 8177","Fax":"(0258)  381 8166","LongLat":"12.2430885,109.1935291","ProvinceID":"63","DistrictID":"354","Address":"Trung t\u00e2m th\u01b0\u01a1ng m\u1ea1i Vincom Plaza, s\u1ed1 44 - 46 \u0111\u01b0\u1eddng L\u00ea Th\u00e1nh T\u00f4n, Nha Trang, Kh\u00e1nh H\u00f2a","BankName":"Techcombank","BankLogo":"\/images\/bank\/techcombank.png"},{"ID":"6353","Name":"Techcombank M\u00e3 V\u00f2ng","Phone":"(0258) 356 1414","Fax":"(0258) 356 2266","LongLat":"12.2482869,109.1867215","ProvinceID":"63","DistrictID":"354","Address":"50 Tha\u0301i Nguy\u00ean, ph\u01b0\u01a1\u0300ng Ph\u01b0\u01a1ng Sa\u0300i, Th\u00e0nh ph\u1ed1 Nha Trang, Kh\u00e1nh H\u00f2a","BankName":"Techcombank","BankLogo":"\/images\/bank\/techcombank.png"},{"ID":"6385","Name":"Techcombank Y\u00ean M\u1ef9","Phone":"(0221) 396 2818","Fax":"(0221) 396 2819","LongLat":"20.8981321,106.0552006","ProvinceID":"62","DistrictID":"696","Address":"Ng\u00e3 ba T\u00e2n L\u1eadp, x\u00e3 T\u00e2n L\u1eadp, Huy\u1ec7n Y\u00ean M\u1ef9, H\u01b0ng Y\u00ean","BankName":"Techcombank","BankLogo":"\/images\/bank\/techcombank.png"},{"ID":"6386","Name":"Techcombank Ph\u1ed1 Hi\u1ebfn","Phone":"(0221) 386 8088","Fax":"(0221) 386 8086","LongLat":"20.6644234,106.0585874","ProvinceID":"62","DistrictID":"707","Address":"S\u1ed1 594 \u0110\u01b0\u1eddng Nguy\u1ec5n V\u0103n Linh, H\u01b0ng Y\u00ean, H\u01b0ng Y\u00ean","BankName":"Techcombank","BankLogo":"\/images\/bank\/techcombank.png"},{"ID":"6387","Name":"Techcombank H\u01b0ng Y\u00ean","Phone":"(0221) 394 1158","Fax":"(0221) 394 1160","LongLat":"20.9257379,106.099291","ProvinceID":"62","DistrictID":"691","Address":"T\u1ea1i th\u1eeda \u0111\u1ea5t s\u1ed1 318, t\u1edd b\u1ea3n \u0111\u1ed3 s\u1ed1 24, M\u1ef9 H\u00e0o, H\u01b0ng Y\u00ean","BankName":"Techcombank","BankLogo":"\/images\/bank\/techcombank.png"},{"ID":"6479","Name":"Techcombank Th\u1ee7y Nguy\u00ean","Phone":"(0225) 364 2288","Fax":"(0225) 364 2086","LongLat":"20.9196901,106.6777866","ProvinceID":"36","DistrictID":"101","Address":"S\u1ed1 104 \u0111\u01b0\u1eddng B\u1ea1ch \u0110\u1eb1ng, Th\u1ecb tr\u1ea5n N\u00fai \u0110\u00e8o, Huy\u1ec7n Thu\u1ef7 Nguy\u00ean, Th\u00e0nh ph\u1ed1 H\u1ea3i Ph\u00f2ng","BankName":"Techcombank","BankLogo":"\/images\/bank\/techcombank.png"},{"ID":"6480","Name":"Techcombank Ki\u1ebfn An","Phone":"(0225) 357 7368","Fax":"(0225) 357 7589","LongLat":"20.809274,106.626265","ProvinceID":"36","DistrictID":"688","Address":"216 Tr\u1ea7n Th\u00e0nh Ng\u1ecd, Qu\u1eadn Ki\u1ebfn An, Th\u00e0nh ph\u1ed1 H\u1ea3i Ph\u00f2ng","BankName":"Techcombank","BankLogo":"\/images\/bank\/techcombank.png"},{"ID":"6482","Name":"Techcombank H\u1ea3i Ph\u00f2ng ","Phone":"(0225) 381 0868","Fax":"(0225) 381 0866","LongLat":"20.8607869,106.686524","ProvinceID":"36","DistrictID":"107","Address":"5 L\u00fd T\u1ef1 Tr\u1ecdng, Ph\u01b0\u1eddng Ho\u00e0ng V\u0103n Th\u1ee5, Qu\u1eadn H\u1ed3ng B\u00e0ng, Th\u00e0nh ph\u1ed1 H\u1ea3i Ph\u00f2ng","BankName":"Techcombank","BankLogo":"\/images\/bank\/techcombank.png"},{"ID":"6483","Name":"Techcombank L\u00ea H\u1ed3ng Phong","Phone":"(0225) 372 2869","Fax":"(0225) 372 2872","LongLat":"20.8213833,106.7262401","ProvinceID":"36","DistrictID":"109","Address":"Th\u1eeda 02 l\u00f4 22B Khu \u0111\u00f4 th\u1ecb m\u1edbi Ng\u00e3 5 s\u00e2n bay C\u00e1t Bi, Ng\u00f4 Quy\u1ec1n, H\u1ea3i Ph\u00f2ng","BankName":"Techcombank","BankLogo":"\/images\/bank\/techcombank.png"},{"ID":"6484","Name":"Techcombank L\u00ea Th\u00e1nh T\u00f4ng","Phone":"(0225) 375 7886","Fax":"(0225) 375 7966","LongLat":"20.867028,106.697593","ProvinceID":"36","DistrictID":"109","Address":"Gian s\u1ed1 L1-15A, t\u1ea7ng 1, Vincom Megamall H\u1ea3i Ph\u00f2ng, s\u1ed1 1 L\u00ea Th\u00e1nh T\u00f4ng, ph\u01b0\u1eddng M\u00e1y T\u01a1, Qu\u1eadn Ng\u00f4 Quy\u1ec1n, Th\u00e0nh ph\u1ed1 H\u1ea3i Ph\u00f2ng","BankName":"Techcombank","BankLogo":"\/images\/bank\/techcombank.png"},{"ID":"6485","Name":"Techcombank Ng\u00f4 Quy\u1ec1n","Phone":"(0225) 384 7668","Fax":"(0225) 384 7669","LongLat":"20.831595,106.6967109","ProvinceID":"36","DistrictID":"109","Address":"S\u1ed1 72 L\u1ea1ch Tray , Qu\u1eadn Ng\u00f4 Quy\u1ec1n, Th\u00e0nh ph\u1ed1 H\u1ea3i Ph\u00f2ng","BankName":"Techcombank","BankLogo":"\/images\/bank\/techcombank.png"},{"ID":"6486","Name":"Techcombank V\u0103n Cao","Phone":"(0225) 365 3168\/69","Fax":"(0225) 365 3166","LongLat":"20.8356737,106.7014829","ProvinceID":"36","DistrictID":"109","Address":"195 V\u0103n Cao, \u0110\u1eb1ng L\u00e2m, Qu\u1eadn Ng\u00f4 Quy\u1ec1n, Th\u00e0nh ph\u1ed1 H\u1ea3i Ph\u00f2ng","BankName":"Techcombank","BankLogo":"\/images\/bank\/techcombank.png"},{"ID":"6488","Name":"Techcombank T\u00f4 Hi\u1ec7u","Phone":"(0225) 370 0866","Fax":"(0225) 370 0287","LongLat":"20.851625,106.683988","ProvinceID":"36","DistrictID":"108","Address":"71 T\u00f4 Hi\u1ec7u, L\u00ea Ch\u00e2n, H\u1ea3i Ph\u00f2ng","BankName":"Techcombank","BankLogo":"\/images\/bank\/techcombank.png"},{"ID":"6490","Name":"Techcombank Ch\u1ee3 \u0110\u00f4n","Phone":"(0225) 385 6286","Fax":"(0225) 385 6269","LongLat":"20.8393565,106.6694172","ProvinceID":"36","DistrictID":"108","Address":"89 Thi\u00ean L\u00f4i, Ph\u01b0\u1eddng Nghi\u0303a Xa\u0301, Qu\u1eadn L\u00ea Ch\u00e2n, Th\u00e0nh ph\u1ed1 H\u1ea3i Ph\u00f2ng","BankName":"Techcombank","BankLogo":"\/images\/bank\/techcombank.png"},{"ID":"6535","Name":"Techcombank Th\u1ed1ng Nh\u1ea5t   ","Phone":"(0220) 3835 866","Fax":"(0220) 383 5865","LongLat":"20.9303965,106.3222171","ProvinceID":"59","DistrictID":"328","Address":"237 - 239 L\u00ea Thanh Nghi\u0323, Th\u00e0nh ph\u1ed1 H\u1ea3i D\u01b0\u01a1ng, H\u1ea3i D\u01b0\u01a1ng","BankName":"Techcombank","BankLogo":"\/images\/bank\/techcombank.png"},{"ID":"6536","Name":"Techcombank Th\u00e0nh \u0110\u00f4ng","Phone":"(0220) 385 8868\/385 3868","Fax":"(0220) 383 0968","LongLat":"20.9393816,106.3321262","ProvinceID":"59","DistrictID":"328","Address":"11B Tr\u1ea7n H\u01b0ng \u0110\u1ea1o, Th\u00e0nh ph\u1ed1 H\u1ea3i D\u01b0\u01a1ng, H\u1ea3i D\u01b0\u01a1ng","BankName":"Techcombank","BankLogo":"\/images\/bank\/techcombank.png"},{"ID":"6537","Name":"Techcombank H\u1ea3i D\u01b0\u01a1ng ","Phone":"(0220) 389 7183","Fax":"(0220) 398 7180","LongLat":"20.9374873,106.3242786","ProvinceID":"59","DistrictID":"328","Address":"82 - 84 Ph\u1ea1m Ng\u0169 L\u00e3o, Th\u00e0nh ph\u1ed1 H\u1ea3i D\u01b0\u01a1ng, H\u1ea3i D\u01b0\u01a1ng","BankName":"Techcombank","BankLogo":"\/images\/bank\/techcombank.png"},{"ID":"6599","Name":"Techcombank K\u1ef3 Anh","Phone":"(0239)373 0688","Fax":"(0239)373 0699","LongLat":"18.0737488,106.290729","ProvinceID":"58","DistrictID":"311","Address":"Gian h\u00e0ng L1 - 05, t\u1ea7ng L1, Trung t\u00e2m Th\u01b0\u01a1ng m\u1ea1i Vincom K\u1ef3 Anh H\u00e0 T\u0129nh, ph\u01b0\u1eddng S\u00f4ng Tr\u00ed, K\u1ef3 Anh, H\u00e0 T\u0129nh","BankName":"Techcombank","BankLogo":"\/images\/bank\/techcombank.png"},{"ID":"6600","Name":"Techcombank Ph\u00fa Qu\u1ed1c","Phone":"(0297) 3999 369","Fax":"---","LongLat":"10.2233409,103.9708382","ProvinceID":"64","DistrictID":"365","Address":"S\u1ed1 216 Nguy\u1ec5n Trung Tr\u1ef1c, th\u1ecb tr\u1ea5n D\u01b0\u01a1ng \u0110\u00f4ng, Ph\u00fa Qu\u1ed1c, Ki\u00ean Giang","BankName":"Techcombank","BankLogo":"\/images\/bank\/techcombank.png"},{"ID":"6601","Name":"Techcombank H\u00e0 T\u0129nh","Phone":"(0239) 369 8886","Fax":"(0239) 369 8878","LongLat":"18.329273,105.896559","ProvinceID":"58","DistrictID":"316","Address":"T\u1ea7ng 1 v\u00e0 2, Vincom Plaza H\u00e0 T\u0129nh, Ng\u00e3 t\u01b0 \u0111\u01b0\u1eddng H\u00e0m Nghi v\u00e0 \u0111\u01b0\u1eddng H\u00e0 Huy T\u1eadp, H\u00e0 T\u0129nh, H\u00e0 T\u0129nh","BankName":"Techcombank","BankLogo":"\/images\/bank\/techcombank.png"},{"ID":"6622","Name":"Techcombank H\u00e0 Nam","Phone":"(0226) 388 9933","Fax":"(0226) 388 9922","LongLat":"20.5360266,105.9128025","ProvinceID":"57","DistrictID":"305","Address":"\u0110\u01b0\u1eddng L\u00ea Ho\u00e0n ph\u01b0\u1eddng Minh Khai, Th\u00e0nh ph\u1ed1 Ph\u1ee7 L\u00fd, H\u00e0 Nam","BankName":"Techcombank","BankLogo":"\/images\/bank\/techcombank.png"},{"ID":"6623","Name":"Techcombank Pleiku","Phone":"(0269) 372 3999","Fax":"(0269) 372 3777","LongLat":"13.977934,107.99789","ProvinceID":"55","DistrictID":"286","Address":"16 - 18 Tr\u1ea7n Ph\u00fa n\u1ed1i d\u00e0i, Th\u00e0nh ph\u1ed1 Pleiku, Gia Lai","BankName":"Techcombank","BankLogo":"\/images\/bank\/techcombank.png"},{"ID":"6627","Name":"Techcombank \u0110\u1ed3ng Th\u00e1p","Phone":"(0277) 387 6783","Fax":"(0277) 387 6790","LongLat":"10.4577644,105.6387471","ProvinceID":"54","DistrictID":"261","Address":"182 - 184 Nguy\u1ec5n Hu\u1ec7, Ph\u01b0\u1eddng 2, Huy\u1ec7n Cao L\u00e3nh, \u0110\u1ed3ng Th\u00e1p","BankName":"Techcombank","BankLogo":"\/images\/bank\/techcombank.png"},{"ID":"6645","Name":"Techcombank Long B\u00ecnh T\u00e2n","Phone":"(0251) 882 6780","Fax":"(0251) 882 6782","LongLat":"10.9012444,106.8526661","ProvinceID":"53","DistrictID":"259","Address":"F6\/12+13, KP1, ph\u01b0\u01a1\u0300ng Long Bi\u0300nh T\u00e2n, Th\u00e0nh ph\u1ed1 Bi\u00ean H\u00f2a, \u0110\u1ed3ng Nai","BankName":"Techcombank","BankLogo":"\/images\/bank\/techcombank.png"},{"ID":"6646","Name":"Techcombank H\u1ed1 Nai","Phone":"(0251) 388 0195","Fax":"(0251) 388 0157","LongLat":"10.970533,106.8932141","ProvinceID":"53","DistrictID":"259","Address":"237, KP5B, ph\u01b0\u1eddng T\u00e2n Bi\u00ean, Th\u00e0nh ph\u1ed1 Bi\u00ean H\u00f2a, \u0110\u1ed3ng Nai","BankName":"Techcombank","BankLogo":"\/images\/bank\/techcombank.png"},{"ID":"6647","Name":"Techcombank \u0110\u1ed3ng Nai","Phone":"(0251) 882 3389\/390","Fax":"(0251) 882 3391","LongLat":"10.9567293,106.8615963","ProvinceID":"53","DistrictID":"259","Address":"PG1-01, TTTMDV Vincom Bi\u00ean H\u00f2a, \u0111\u01b0\u1eddng Ph\u1ea1m V\u0103n Thu\u1eadn, ph\u01b0\u1eddng T\u00e2n Hi\u1ec7p, Bi\u00ean H\u00f2a, \u0110\u1ed3ng Nai","BankName":"Techcombank","BankLogo":"\/images\/bank\/techcombank.png"},{"ID":"6648","Name":"Techcombank Bi\u00ean H\u00f2a","Phone":"(0251) 882 0738","Fax":"(0251) 882 0740","LongLat":"10.9528314,106.8694639","ProvinceID":"53","DistrictID":"259","Address":"39 \u0110\u1ed3ng Kh\u1edfi, Bi\u00ean H\u00f2a, \u0110\u1ed3ng Nai","BankName":"Techcombank","BankLogo":"\/images\/bank\/techcombank.png"},{"ID":"6649","Name":"Techcombank Long Th\u00e0nh","Phone":"(0251) 354 4003","Fax":"(0251) 354 4004","LongLat":"10.7810161,106.9521649","ProvinceID":"53","DistrictID":"252","Address":"T\u00f4\u0309 10, khu Ph\u01b0\u01a1\u0301c Ha\u0309i, Huy\u1ec7n Long Th\u00e0nh, \u0110\u1ed3ng Nai","BankName":"Techcombank","BankLogo":"\/images\/bank\/techcombank.png"},{"ID":"6692","Name":"Techcombank Daklak","Phone":"(0262) 384 0808","Fax":"(0262) 384 0809","LongLat":"12.6859646,108.0536664","ProvinceID":"50","DistrictID":"231","Address":"29 Nguy\u1ec5n T\u1ea5t Th\u00e0nh, P. T\u00e2n L\u1ee3i, Th\u00e0nh ph\u1ed1 Bu\u00f4n Ma Thu\u1ed9t, \u0110\u1eafk L\u1eafk","BankName":"Techcombank","BankLogo":"\/images\/bank\/techcombank.png"},{"ID":"6743","Name":"Techcombank Thanh Kh\u00ea","Phone":"(0236) 357 2999","Fax":"(0236) 357 2998","LongLat":"16.0793693,108.2226444","ProvinceID":"35","DistrictID":"91","Address":"T\u00f2a nh\u00e0 \u0110\u00e0 N\u1eb5ng Plaza, s\u1ed1 16 Tr\u1ea7n Ph\u00fa, ph\u01b0\u1eddng Th\u1ea1ch Quang, Qu\u1eadn H\u1ea3i Ch\u00e2u, Th\u00e0nh ph\u1ed1 \u0110\u00e0 N\u1eb5ng","BankName":"Techcombank","BankLogo":"\/images\/bank\/techcombank.png"},{"ID":"6744","Name":"Techcombank Thanh B\u00ecnh","Phone":"(0236) 381 9898","Fax":"(0236) 381 9897","LongLat":"16.0775555,108.2118936","ProvinceID":"35","DistrictID":"91","Address":"54 \u00d4ng I\u0301ch Khi\u00eam, P.Thanh Bi\u0300nh, Qu\u1eadn H\u1ea3i Ch\u00e2u, Th\u00e0nh ph\u1ed1 \u0110\u00e0 N\u1eb5ng","BankName":"Techcombank","BankLogo":"\/images\/bank\/techcombank.png"},{"ID":"6745","Name":"Techcombank Phan Chu Trinh","Phone":"(0236) 356 2998","Fax":"(0236) 356 2997","LongLat":"16.0661925,108.2203758","ProvinceID":"35","DistrictID":"91","Address":"97 Phan Chu Trinh, Qu\u1eadn H\u1ea3i Ch\u00e2u, Th\u00e0nh ph\u1ed1 \u0110\u00e0 N\u1eb5ng","BankName":"Techcombank","BankLogo":"\/images\/bank\/techcombank.png"},{"ID":"6746","Name":"Techcombank Nguy\u1ec5n Hu\u1ec7","Phone":"(0236) 387 3999","Fax":"(0236) 387 3997","LongLat":"16.074745,108.220362","ProvinceID":"35","DistrictID":"91","Address":"65 Quang Trung, ph\u01b0\u1eddng H\u1ea3i Ch\u00e2u 1, Qu\u1eadn H\u1ea3i Ch\u00e2u, Th\u00e0nh ph\u1ed1 \u0110\u00e0 N\u1eb5ng","BankName":"Techcombank","BankLogo":"\/images\/bank\/techcombank.png"},{"ID":"6747","Name":"Techcombank H\u1ea3i Ch\u00e2u","Phone":"(0236) 386 6608","Fax":"(0236) 386 6609","LongLat":"16.0656206,108.2145352","ProvinceID":"35","DistrictID":"91","Address":"291 \u00d4ng \u00cdch Khi\u00eam, Qu\u1eadn H\u1ea3i Ch\u00e2u, Th\u00e0nh ph\u1ed1 \u0110\u00e0 N\u1eb5ng","BankName":"Techcombank","BankLogo":"\/images\/bank\/techcombank.png"},{"ID":"6748","Name":"Techcombank \u0110\u00e0 N\u1eb5ng","Phone":"(0236) 365 5118","Fax":"(0236) 365 5455","LongLat":"16.0589409,108.2065892","ProvinceID":"35","DistrictID":"91","Address":"304 Nguy\u1ec5n V\u0103n Linh, Thanh Kh\u00ea, \u0110\u00e0 N\u1eb5ng","BankName":"Techcombank","BankLogo":"\/images\/bank\/techcombank.png"},{"ID":"6749","Name":"Techcombank Ch\u1ee3 M\u1edbi","Phone":"(0236) 384 0887","Fax":"(0236) 355 3222","LongLat":"16.053157,108.218204","ProvinceID":"35","DistrictID":"91","Address":"298 Tr\u01b0ng N\u1eef V\u01b0\u01a1ng, Qu\u1eadn H\u1ea3i Ch\u00e2u, Th\u00e0nh ph\u1ed1 \u0110\u00e0 N\u1eb5ng","BankName":"Techcombank","BankLogo":"\/images\/bank\/techcombank.png"},{"ID":"6750","Name":"Techcombank Ch\u1ee3 H\u00e0n","Phone":"(0236) 384 0886","Fax":"(0236) 384 0887","LongLat":"16.0679498,108.2237181","ProvinceID":"35","DistrictID":"91","Address":"136 Tr\u1ea7n Ph\u00fa, Qu\u1eadn H\u1ea3i Ch\u00e2u, Th\u00e0nh ph\u1ed1 \u0110\u00e0 N\u1eb5ng","BankName":"Techcombank","BankLogo":"\/images\/bank\/techcombank.png"},{"ID":"6751","Name":"Techcombank H\u00f2a Kh\u00e1nh","Phone":"(0236) 373 1998","Fax":"(0236) 373 1997","LongLat":"16.064765,108.1562059","ProvinceID":"35","DistrictID":"92","Address":"661 T\u00f4n \u0110\u1ee9c Th\u1eafng, Qu\u1eadn Li\u00ean Chi\u1ec3u, Th\u00e0nh ph\u1ed1 \u0110\u00e0 N\u1eb5ng","BankName":"Techcombank","BankLogo":"\/images\/bank\/techcombank.png"},{"ID":"6752","Name":"Techcombank 29-3","Phone":"(0236) 383 8858","Fax":"(0236) 383 8848","LongLat":"16.066205,108.205404","ProvinceID":"35","DistrictID":"95","Address":"24 - 26 \u0110i\u1ec7n Bi\u00ean Ph\u1ee7, Ch\u00ednh Gi\u00e1n, Qu\u1eadn Thanh Kh\u00ea, Th\u00e0nh ph\u1ed1 \u0110\u00e0 N\u1eb5ng","BankName":"Techcombank","BankLogo":"\/images\/bank\/techcombank.png"},{"ID":"6816","Name":"Techcombank C\u00e1i R\u0103ng","Phone":"(0292) 391 5777","Fax":"(0292) 391 5767","LongLat":"9.9624535,105.7354972","ProvinceID":"34","DistrictID":"84","Address":"161\/A2 Qu\u00f4\u0301c l\u00f4\u0323 1A, P. L\u00ea B\u00ecnh, Qu\u1eadn C\u00e1i R\u0103ng, Th\u00e0nh ph\u1ed1 C\u1ea7n Th\u01a1","BankName":"Techcombank","BankLogo":"\/images\/bank\/techcombank.png"},{"ID":"6817","Name":"Techcombank Th\u1ed1t N\u1ed1t","Phone":"(0292) 361 2737","Fax":"(0292) 612 735","LongLat":"10.2725016,105.5302634","ProvinceID":"34","DistrictID":"87","Address":"568 qu\u00f4\u0301c l\u00f4\u0323 91, khu v\u01b0\u0323c Long Tha\u0323nh A, Ph\u01b0\u1eddng Th\u00f4\u0301t N\u00f4\u0301t, Qu\u1eadn Th\u1ed1t N\u1ed1t, Th\u00e0nh ph\u1ed1 C\u1ea7n Th\u01a1","BankName":"Techcombank","BankLogo":"\/images\/bank\/techcombank.png"},{"ID":"6818","Name":"Techcombank T\u00e2n An","Phone":"(0292) 376 6669","Fax":"(0292) 376 6668","LongLat":"10.0314096,105.7815831","ProvinceID":"34","DistrictID":"85","Address":"T\u1ea7ng 2 s\u1ed1 45A - 47 \u0111\u01b0\u1eddng 30\/4 , Ninh Ki\u1ec1u, C\u1ea7n Th\u01a1","BankName":"Techcombank","BankLogo":"\/images\/bank\/techcombank.png"},