[{"ID":"5911","Name":"Chi nh\u00e1nh Nam \u0110\u1ecbnh","Phone":"0350.3649.908","Fax":"0350.3649.906","LongLat":"20.4380958,106.1763277","ProvinceID":"71","DistrictID":"430","Address":"S\u1ed1 8 \u0110\u01b0\u1eddng Tr\u1ea7n Th\u00e1nh T\u00f4ng, Ph\u01b0\u1eddng Th\u1ed1ng Nh\u1ea5t, TP Nam \u0110\u1ecbnh, T\u1ec9nh Nam \u0110\u1ecbnh","BankName":"Co-opbank","BankLogo":"\/uploads\/2016\/09\/20\/thebank_logo_1474341350.png"},{"ID":"5912","Name":"Chi nh\u00e1nh Ninh B\u00ecnh","Phone":"030.3872.390","Fax":"030.3872.390","LongLat":"20.2639567,105.9753452","ProvinceID":"73","DistrictID":"456","Address":"Ph\u1ed1 10, Ph\u01b0\u1eddng \u0110\u00f4ng Th\u00e0nh, TP Ninh B\u00ecnh, T\u1ec9nh Ninh B\u00ecnh","BankName":"Co-opbank","BankLogo":"\/uploads\/2016\/09\/20\/thebank_logo_1474341350.png"},{"ID":"5913","Name":"Chi nh\u00e1nh B\u00ecnh Thu\u1eadn","Phone":"062.3830867","Fax":"062.3831128","LongLat":"10.9341141,108.1040864","ProvinceID":"47","DistrictID":"195","Address":"245 Tr\u1ea7n H\u01b0ng \u0110\u1ea1o, Ph\u01b0\u1eddng Ph\u00fa Th\u1ee7y, Tp. Phan Thi\u1ebft, T\u1ec9nh B\u00ecnh Thu\u1eadn","BankName":"Co-opbank","BankLogo":"\/uploads\/2016\/09\/20\/thebank_logo_1474341350.png"},{"ID":"5914","Name":"Chi nh\u00e1nh H\u1ea3i Ph\u00f2ng","Phone":"031.3842.250","Fax":"031.3842.251","LongLat":"20.8619024,106.6802873","ProvinceID":"36","DistrictID":"107","Address":"S\u1ed1 24 B\u1ebfn B\u00ednh, Ph\u01b0\u1eddng Minh Khai, Qu\u1eadn H\u1ed3ng B\u00e0ng, TP H\u1ea3i Ph\u00f2ng","BankName":"Co-opbank","BankLogo":"\/uploads\/2016\/09\/20\/thebank_logo_1474341350.png"},{"ID":"5915","Name":"Chi nh\u00e1nh Long An","Phone":"072.3825.053","Fax":"072.3827.422","LongLat":"10.5396506,106.4153103","ProvinceID":"70","DistrictID":"420","Address":"S\u1ed1 10 Nguy\u1ec5n Hu\u1ec7, Ph\u01b0\u1eddng 1, TP. T\u00e2n An, T\u1ec9nh Long An","BankName":"Co-opbank","BankLogo":"\/uploads\/2016\/09\/20\/thebank_logo_1474341350.png"},{"ID":"5916","Name":"Chi nh\u00e1nh B\u1eafc Ninh","Phone":"0241.3824.274","Fax":"0241.3810.420","LongLat":"21.176527,106.0751037","ProvinceID":"42","DistrictID":"158","Address":"S\u1ed1 353 Tr\u1ea7n H\u01b0ng \u0110\u1ea1o, Ph\u01b0\u1eddng \u0110\u1ea1i Ph\u00fac, TP. B\u1eafc Ninh, T\u1ec9nh B\u1eafc Ninh","BankName":"Co-opbank","BankLogo":"\/uploads\/2016\/09\/20\/thebank_logo_1474341350.png"},{"ID":"5917","Name":"Chi nh\u00e1nh S\u00f3c Tr\u0103ng","Phone":"079.3812.415","Fax":"079.3826.703","LongLat":"9.6047809,105.9753791","ProvinceID":"82","DistrictID":"560","Address":"S\u1ed1 32 Nguy\u1ec5n H\u00f9ng Ph\u01b0\u1edbc, Ph\u01b0\u1eddng 1, TP S\u00f3c Tr\u0103ng, T\u1ec9nh S\u00f3c Tr\u0103ng","BankName":"Co-opbank","BankLogo":"\/uploads\/2016\/09\/20\/thebank_logo_1474341350.png"},{"ID":"5918","Name":"Chi nh\u00e1nh H\u00e0 Nam","Phone":"03513616588 \u2013 03513616969","Fax":"03513616599","LongLat":"20.5490196,105.9158127","ProvinceID":"57","DistrictID":"305","Address":"25 L\u00ea Ho\u00e0n \u2013 Ph\u00fa l\u00fd \u2013 H\u00e0 nam","BankName":"Co-opbank","BankLogo":"\/uploads\/2016\/09\/20\/thebank_logo_1474341350.png"},{"ID":"5919","Name":"Chi nh\u00e1nh Ki\u00ean Giang","Phone":"077.3942.099, 077.3942.079","Fax":"077.3942.049","LongLat":"10.004646,105.0868089","ProvinceID":"64","DistrictID":"369","Address":"S\u1ed1 100 \u0110\u01b0\u1eddng Nguy\u1ec5n Trung Tr\u1ef1c, Ph\u01b0\u1eddng V\u0129nh B\u1ea3o, TP R\u1ea1ch Gi\u00e1, T\u1ec9nh Ki\u00ean Giang","BankName":"Co-opbank","BankLogo":"\/uploads\/2016\/09\/20\/thebank_logo_1474341350.png"},{"ID":"5920","Name":"Chi nh\u00e1nh Tr\u00e0 Vinh","Phone":"074.3866.668","Fax":" 074.3863.555","LongLat":"9.9284202,106.3408077","ProvinceID":"90","DistrictID":"650","Address":"S\u1ed1 9-10 \u0110i\u1ec7n Bi\u00ean Ph\u1ee7, Ph\u01b0\u1eddng 6, TP. Tr\u00e0 Vinh, T\u1ec9nh Tr\u00e0 Vinh","BankName":"Co-opbank","BankLogo":"\/uploads\/2016\/09\/20\/thebank_logo_1474341350.png"},{"ID":"5970","Name":"Chi nh\u00e1nh Thanh Ho\u00e1","Phone":"037.3757.491","Fax":"037.3757.490","LongLat":"19.8121847,105.7726101","ProvinceID":"87","DistrictID":"621","Address":"S\u1ed1 25 Phan Chu Trinh, Ph\u01b0\u1eddng \u0110i\u1ec7n Bi\u00ean, TP Thanh Ho\u00e1, T\u1ec9nh Thanh Ho\u00e1","BankName":"Co-opbank","BankLogo":"\/uploads\/2016\/09\/20\/thebank_logo_1474341350.png"},{"ID":"5971","Name":"Chi nh\u00e1nh V\u0129nh Ph\u00fac","Phone":"0211.3861.762 \u2013 0211.3841.591","Fax":"0211.3841.591","LongLat":"21.3049121,105.5936323","ProvinceID":"93","DistrictID":"672","Address":"S\u1ed1 6 L\u00fd B\u00f4n, Ph\u01b0\u1eddng Ng\u00f4 Quy\u1ec1n, TP V\u0129nh Y\u00ean, T\u1ec9nh V\u0129nh Ph\u00fac","BankName":"Co-opbank","BankLogo":"\/uploads\/2016\/09\/20\/thebank_logo_1474341350.png"},{"ID":"5972","Name":"Chi nh\u00e1nh \u0110\u1ed3ng Nai","Phone":"061.3826.320 \u2013 061.3829.038","Fax":" 061.3826.321","LongLat":"10.9633629,106.8391427","ProvinceID":"53","DistrictID":"259","Address":"S\u1ed1 150A Nguy\u1ec5n \u00c1i Qu\u1ed1c, Ph\u01b0\u1eddng T\u00e2n Ti\u1ebfn, TP. Bi\u00ean Ho\u00e0, T\u1ec9nh \u0110\u1ed3ng Nai","BankName":"Co-opbank","BankLogo":"\/uploads\/2016\/09\/20\/thebank_logo_1474341350.png"},{"ID":"5973","Name":"Chi nh\u00e1nh \u0110\u0103k L\u0103k","Phone":"0500.3859.680 \u2013 0500.3999.990","Fax":"0500.3856.740","LongLat":"12.6804431,108.0413742","ProvinceID":"50","DistrictID":"231","Address":"S\u1ed1 68, 70 L\u00ea H\u1ed3ng Phong, TP Bu\u00f4n Ma Thu\u1ed9t, T\u1ec9nh \u0110\u0103k L\u0103k","BankName":"Co-opbank","BankLogo":"\/uploads\/2016\/09\/20\/thebank_logo_1474341350.png"},{"ID":"5981","Name":"Chi nh\u00e1nh H\u01b0ng Y\u00ean","Phone":"0321.3865.726","Fax":"0321.3550.241","LongLat":"20.6749852,106.0570557","ProvinceID":"62","DistrictID":"707","Address":"\u0110\u01b0\u1eddng Nguy\u1ec5n L\u01b0\u01a1ng B\u1eb1ng, Ph\u01b0\u1eddng Lam S\u01a1n, TP. H\u01b0ng Y\u00ean, T\u1ec9nh H\u01b0ng Y\u00ean","BankName":"Co-opbank","BankLogo":"\/uploads\/2016\/09\/20\/thebank_logo_1474341350.png"},{"ID":"5995","Name":"Chi nh\u00e1nh L\u00e2m \u0110\u1ed3ng","Phone":"063.3827.857","Fax":"063.3829.075","LongLat":"11.9440252,108.4358958","ProvinceID":"67","DistrictID":"683","Address":"S\u1ed1 56 Khu Ho\u00e0 B\u00ecnh, Ph\u01b0\u1eddng 1, TP \u0110\u00e0 L\u1ea1t, T\u1ec9nh L\u00e2m \u0110\u1ed3ng","BankName":"Co-opbank","BankLogo":"\/uploads\/2016\/09\/20\/thebank_logo_1474341350.png"},{"ID":"5996","Name":"Chi nh\u00e1nh Ngh\u1ec7 An","Phone":"038.3566.997 \u2013 038.3589.096","Fax":"038.3566.997","LongLat":"18.6790017,105.691028","ProvinceID":"72","DistrictID":"447","Address":"S\u1ed1 4 \u0110\u01b0\u1eddng D\u01b0\u01a1ng V\u00e2n Nga, Ph\u01b0\u1eddng H\u01b0ng Ph\u00fac, TP Vinh, T\u1ec9nh Ngh\u1ec7 An","BankName":"Co-opbank","BankLogo":"\/uploads\/2016\/09\/20\/thebank_logo_1474341350.png"},{"ID":"5997","Name":"Chi nh\u00e1nh Ph\u00fa Th\u1ecd","Phone":"0210.3847.503 \u2013 0210.3815.575","Fax":"0210.3843.911","LongLat":"21.3106041,105.4004387","ProvinceID":"75","DistrictID":"476","Address":"S\u1ed1 1959 \u0110\u1ea1i l\u1ed9 H\u00f9ng V\u01b0\u01a1ng, Ph\u01b0\u1eddng Gia C\u1ea9m, TP Vi\u1ec7t Tr\u00ec, T\u1ec9nh Ph\u00fa Th\u1ecd","BankName":"Co-opbank","BankLogo":"\/uploads\/2016\/09\/20\/thebank_logo_1474341350.png"},{"ID":"5998","Name":"Chi nh\u00e1nh Qu\u1ea3ng B\u00ecnh","Phone":"052.3824.373 \u2013 052.3825.217","Fax":"052.3828.067","LongLat":"17.4801093,106.6196136","ProvinceID":"77","DistrictID":"493","Address":"S\u1ed1 209 L\u00fd Th\u01b0\u1eddng Ki\u1ec7t, Ph\u01b0\u1eddng \u0110\u00f4ng Ph\u00fa, TP. \u0110\u1ed3ng H\u1edbi, T\u1ec9nh Qu\u1ea3ng B\u00ecnh","BankName":"Co-opbank","BankLogo":"\/uploads\/2016\/09\/20\/thebank_logo_1474341350.png"},{"ID":"5999","Name":"Chi nh\u00e1nh Th\u00e1i B\u00ecnh","Phone":"036.3847.168","Fax":"036.3836.274","LongLat":"20.4470245,106.3294382","ProvinceID":"85","DistrictID":"588","Address":"S\u1ed1 75 Ph\u1ed1 Tr\u1ea7n Ph\u00fa, Ph\u01b0\u1eddng Tr\u1ea7n H\u01b0ng \u0110\u1ea1o, TP Th\u00e1i B\u00ecnh, T\u1ec9nh Th\u00e1i B\u00ecnh","BankName":"Co-opbank","BankLogo":"\/uploads\/2016\/09\/20\/thebank_logo_1474341350.png"},{"ID":"6007","Name":"S\u1edf giao d\u1ecbch","Phone":"04.39741.610","Fax":"04.39741.615","LongLat":"21.0104108,105.8046567","ProvinceID":"32","DistrictID":"2","Address":"To\u00e0 nh\u00e0 15T, Nguy\u1ec5n Th\u1ecb \u0110\u1ecbnh, Ph\u01b0\u1eddng Trung Ho\u00e0, Qu\u1eadn C\u1ea7u Gi\u1ea5y","BankName":"Co-opbank","BankLogo":"\/uploads\/2016\/09\/20\/thebank_logo_1474341350.png"},{"ID":"6008","Name":"Chi nh\u00e1nh Hai B\u00e0 Tr\u01b0ng","Phone":"04.39741.611","Fax":"04.39748.547","LongLat":"21.0158167,105.8240569","ProvinceID":"32","DistrictID":"3","Address":"57 V\u00f5 V\u0103n D\u0169ng, Qu\u1eadn \u0110\u1ed1ng \u0110a, H\u00e0 N\u1ed9i","BankName":"Co-opbank","BankLogo":"\/uploads\/2016\/09\/20\/thebank_logo_1474341350.png"},{"ID":"6009","Name":"Chi nh\u00e1nh H\u00e0 T\u00e2y","Phone":"04.33554.771","Fax":"04.33517.612","LongLat":"20.9691487,105.7692283","ProvinceID":"32","DistrictID":"4","Address":"C\u1eeda s\u1ed1 9, \u00d4 s\u1ed1 3, Khu H\u00e0nh ch\u00ednh m\u1edbi, ph\u01b0\u1eddng H\u00e0 C\u1ea7u, Qu\u1eadn H\u00e0 \u0110\u00f4ng, H\u00e0 N\u1ed9i","BankName":"Co-opbank","BankLogo":"\/uploads\/2016\/09\/20\/thebank_logo_1474341350.png"},{"ID":"6010","Name":"Chi nh\u00e1nh An Giang","Phone":"076.3840866","Fax":"076.3844543","LongLat":"10.3810414,105.4404871","ProvinceID":"37","DistrictID":"118","Address":"89-91 H\u00f9ng V\u01b0\u01a1ng, Ph\u01b0\u1eddng M\u1ef9 Long, TP. Long Xuy\u00ean, T\u1ec9nh An Giang","BankName":"Co-opbank","BankLogo":"\/uploads\/2016\/09\/20\/thebank_logo_1474341350.png"},{"ID":"6011","Name":"Chi nh\u00e1nh H\u1ed3 Ch\u00ed Minh","Phone":"08.39144.277","Fax":"08.39144.282","LongLat":"10.767599,106.696553","ProvinceID":"33","DistrictID":"49","Address":"S\u1ed1 22 Tr\u1ecbnh V\u0103n C\u1ea5n, Ph\u01b0\u1eddng C\u1ea7u \u00d4ng L\u00e3nh, Qu\u1eadn I, TP H\u1ed3 Ch\u00ed Minh.","BankName":"Co-opbank","BankLogo":"\/uploads\/2016\/09\/20\/thebank_logo_1474341350.png"},{"ID":"6012","Name":"Chi nh\u00e1nh B\u00ecnh \u0110\u1ecbnh","Phone":"056.3791.695","Fax":"056.3821.026","LongLat":"13.817343,109.1800914","ProvinceID":"44","DistrictID":"179","Address":"T\u1ed5 37, Khu v\u1ef1c 7, Ph\u01b0\u1eddng \u0110\u1ed1ng \u0110a, TP. Quy Nh\u01a1n, T\u1ec9nh B\u00ecnh \u0110\u1ecbnh","BankName":"Co-opbank","BankLogo":"\/uploads\/2016\/09\/20\/thebank_logo_1474341350.png"},{"ID":"6013","Name":"Chi nh\u00e1nh H\u1ea3i D\u01b0\u01a1ng","Phone":"0320.3892.069","Fax":"0320.3892.071","LongLat":"20.9372341,106.3089807","ProvinceID":"59","DistrictID":"328","Address":"S\u1ed1 185 Nguy\u1ec5n L\u01b0\u01a1ng B\u1eb1ng, Ph\u01b0\u1eddng Thanh B\u00ecnh, TP H\u1ea3i D\u01b0\u01a1ng, T\u1ec9nh H\u1ea3i D\u01b0\u01a1ng","BankName":"Co-opbank","BankLogo":"\/uploads\/2016\/09\/20\/thebank_logo_1474341350.png"},{"ID":"6410","Name":"PGD s\u1ed1 5_CN \u0110\u0103kl\u0103k","Phone":"0500.3859680","Fax":"---","LongLat":"","ProvinceID":"50","DistrictID":"231","Address":"Ch\u1ee3 T\u00e2n An \u2013 Ph\u01b0\u1eddng T\u00e2n An \u2013 Bu\u00f4n Ma Thu\u1eadt \u2013 \u0110\u0103k l\u0103k","BankName":"Co-opbank","BankLogo":"\/uploads\/2016\/09\/20\/thebank_logo_1474341350.png"},{"ID":"6411","Name":"PGD s\u1ed1 7 _CN Thanh H\u00f3a","Phone":"0373823969","Fax":"---","LongLat":"19.7381246,105.8990772","ProvinceID":"87","DistrictID":"623","Address":"105 Nguy\u00ea\u0303n Du \u2013 Ph\u01b0\u01a1\u0300ng B\u0103\u0301c s\u01a1n \u2013 T.X\u00e3 S\u1ea7m S\u01a1n \u2013 Thanh Ho\u0301a","BankName":"Co-opbank","BankLogo":"\/uploads\/2016\/09\/20\/thebank_logo_1474341350.png"},{"ID":"6412","Name":"PGD Ph\u1ed1 N\u1ed1i_CN H\u01b0ng Y\u00ean","Phone":"0321 3942953","Fax":"---","LongLat":"20.9254001,106.0574581","ProvinceID":"62","DistrictID":"707","Address":"Ph\u1ed1 N\u1ed1i \u2013 H\u01b0ng Y\u00ean","BankName":"Co-opbank","BankLogo":"\/uploads\/2016\/09\/20\/thebank_logo_1474341350.png"},{"ID":"6413","Name":"PGD S\u1ed1 1_CN Nam \u0110\u1ecbnh","Phone":"0350.3848652","Fax":"---","LongLat":"20.4159188,106.1585825","ProvinceID":"71","DistrictID":"430","Address":"S\u1ed1 92 \u0111\u01b0\u1eddng Tr\u1ea7n Huy Li\u1ec7u \u2013 ph\u01b0\u1eddng V\u0103n Mi\u1ebfu \u2013 TP. Nam \u0110\u1ecbnh, T\u1ec9nh Nam \u0110\u1ecbnh","BankName":"Co-opbank","BankLogo":"\/uploads\/2016\/09\/20\/thebank_logo_1474341350.png"},{"ID":"6414","Name":"PGD T\u00e2n Ph\u00fa_CN TPHCM","Phone":"083 8108869","Fax":"---","LongLat":"10.80308,106.630664","ProvinceID":"33","DistrictID":"77","Address":"121 T\u00e2n K\u1ef3 \u2013 T\u00e2n Qu\u00fd \u2013 Qu\u1eadn T\u00e2n Ph\u00fa \u2013 TPHCM","BankName":"Co-opbank","BankLogo":"\/uploads\/2016\/09\/20\/thebank_logo_1474341350.png"},{"ID":"6415","Name":"PGD s\u1ed1 3_CN Ph\u00fa Th\u1ecd","Phone":"02103 631555","Fax":"---","LongLat":"21.4298041,105.0557415","ProvinceID":"75","DistrictID":"465","Address":"Khu 11 \u2013 Th\u1ecb Tr\u1ea5n S\u00f4ng Thao \u2013 H. C\u1ea9m Kh\u00ea \u2013 Ph\u00fa Th\u1ecd","BankName":"Co-opbank","BankLogo":"\/uploads\/2016\/09\/20\/thebank_logo_1474341350.png"},{"ID":"6416","Name":"PGD Qu\u1eadn 9_CN TPHCM","Phone":"083 7281790","Fax":"---","LongLat":"10.790261,106.8260436","ProvinceID":"33","DistrictID":"71","Address":"383 \u0110\u1ed7 Xu\u00e2n H\u1ee3p \u2013 Qu\u1eadn 9 \u2013 TP HCM","BankName":"Co-opbank","BankLogo":"\/uploads\/2016\/09\/20\/thebank_logo_1474341350.png"},{"ID":"6417","Name":"PGD S\u1ed1 1_CN Ninh B\u00ecnh","Phone":"0303 897424","Fax":"---","LongLat":"20.2525138,105.9731158","ProvinceID":"73","DistrictID":"456","Address":"S\u1ed1 47 \u0110\u01b0\u1eddng Tr\u1ea7n Ph\u00fa \u2013 Ph\u01b0\u1eddng Ph\u00fac Th\u00e0nh \u2013 TP. Ninh B\u00ecnh, T\u1ec9nh Ninh B\u00ecnh","BankName":"Co-opbank","BankLogo":"\/uploads\/2016\/09\/20\/thebank_logo_1474341350.png"},{"ID":"6418","Name":"PGD s\u1ed1 2_CN Ninh B\u00ecnh","Phone":"0303 891567","Fax":"---","LongLat":"20.2733332,105.9643869","ProvinceID":"73","DistrictID":"456","Address":"S\u1ed1 561 Ph\u1ed1 Kh\u00e1nh T\u00e2n \u2013 Ph\u01b0\u1eddng Ninh Kh\u00e1nh \u2013 TP. Ninh B\u00ecnh, T\u1ec9nh Ninh B\u00ecnh","BankName":"Co-opbank","BankLogo":"\/uploads\/2016\/09\/20\/thebank_logo_1474341350.png"},{"ID":"6419","Name":"PGD Tam \u0110i\u1ec7p_CN Ninh B\u00ecnh","Phone":"0303777899","Fax":"---","LongLat":"20.1089734,105.8583873","ProvinceID":"73","DistrictID":"457","Address":"Ph\u01b0\u1eddng B\u1eafc S\u01a1n \u2013 TX Tam \u0110i\u1ec7p \u2013 Ninh B\u00ecnh","BankName":"Co-opbank","BankLogo":"\/uploads\/2016\/09\/20\/thebank_logo_1474341350.png"},{"ID":"6420","Name":"PGD S\u1ed1 2_CN B\u00ecnh Thu\u1eadn","Phone":"062.6250999","Fax":"---","LongLat":"10.9341141,108.1040864","ProvinceID":"47","DistrictID":"195","Address":"215 Tr\u1ea7n H\u01b0ng \u0110\u1ea1o \u2013 TP. Phan Thi\u1ebft \u2013 B\u00ecnh Thu\u1eadn","BankName":"Co-opbank","BankLogo":"\/uploads\/2016\/09\/20\/thebank_logo_1474341350.png"},{"ID":"6421","Name":"PGD s\u1ed1 2_CN Ph\u00fa Th\u1ecd","Phone":"02103 761664","Fax":"---","LongLat":"21.4092335,105.3101915","ProvinceID":"75","DistrictID":"469","Address":"TT Phong Ch\u00e2u \u2013 Huy\u1ec7n Ph\u00f9 Ninh \u2013 Ph\u00fa Th\u1ecd","BankName":"Co-opbank","BankLogo":"\/uploads\/2016\/09\/20\/thebank_logo_1474341350.png"},{"ID":"6422","Name":"PGD s\u1ed1 03_CN V\u0129nh Ph\u00fac","Phone":"0211 3761555","Fax":"---","LongLat":"21.3499346,105.6324554","ProvinceID":"93","DistrictID":"665","Address":"T.T Gia Kh\u00e1nh \u2013 Huy\u1ec7n B\u00ecnh xuy\u00ean \u2013 V\u0129nh Ph\u00fac","BankName":"Co-opbank","BankLogo":"\/uploads\/2016\/09\/20\/thebank_logo_1474341350.png"},{"ID":"6423","Name":"PGD Ch\u00e2u Th\u00e0nh_CN Long An","Phone":"0723 877398","Fax":"---","LongLat":"10.4452129,106.4729811","ProvinceID":"70","DistrictID":"410","Address":"TT T\u1ea7m Vu \u2013 Huy\u1ec7n Ch\u00e2u Th\u00e0nh \u2013 Long An","BankName":"Co-opbank","BankLogo":"\/uploads\/2016\/09\/20\/thebank_logo_1474341350.png"},{"ID":"6424","Name":"PGD S\u1ed1 2 V\u00f5 C\u01b0\u1eddng_CN B\u1eafc Ninh","Phone":"0241 3896468","Fax":"---","LongLat":"21.1644992,106.0552006","ProvinceID":"42","DistrictID":"158","Address":"Ph\u01b0\u1eddng V\u00f5 C\u01b0\u1eddng \u2013 TP B\u1eafc Ninh \u2013 B\u1eafc Ninh","BankName":"Co-opbank","BankLogo":"\/uploads\/2016\/09\/20\/thebank_logo_1474341350.png"},{"ID":"6425","Name":"PGD S\u00f3c Tr\u0103ng_CN S\u00f3c Tr\u0103ng","Phone":"079.3615050","Fax":"---","LongLat":"9.6235445,105.9603444","ProvinceID":"82","DistrictID":"560","Address":"S\u1ed1 70 \u2013 Qu\u1ed1c l\u1ed9 1 A \u2013 TP. S\u00f3c Tr\u0103ng, T\u1ec9nh S\u00f3c Tr\u0103ng","BankName":"Co-opbank","BankLogo":"\/uploads\/2016\/09\/20\/thebank_logo_1474341350.png"},{"ID":"6426","Name":"PGD s\u1ed1 2_CN H\u00e0 T\u00e2y","Phone":"043.7893077","Fax":"---","LongLat":"20.990546,105.763599","ProvinceID":"32","DistrictID":"42","Address":"\u0110\u1ea1i M\u1ed7 \u2013 Qu\u1eadn Nam T\u1eeb Li\u00eam \u2013 H\u00e0 N\u1ed9i","BankName":"Co-opbank","BankLogo":"\/uploads\/2016\/09\/20\/thebank_logo_1474341350.png"},{"ID":"6427","Name":"PGD C\u00e0 Mau_CN S\u00f3c Tr\u0103ng","Phone":"0780.3591886","Fax":"---","LongLat":"9.1826859,105.1418872","ProvinceID":"48","DistrictID":"204","Address":"78 Ng\u00f4 Quy\u1ec1n \u2013 Ph\u01b0\u1eddng 9 \u2013 Th\u00e0nh ph\u1ed1 C\u00e0 Mau, T\u1ec9nh C\u00e0 Mau","BankName":"Co-opbank","BankLogo":"\/uploads\/2016\/09\/20\/thebank_logo_1474341350.png"},{"ID":"6428","Name":"PGD S\u1ed1 4_CN \u0110\u0103kl\u0103k","Phone":"0500.3663668","Fax":"---","LongLat":"","ProvinceID":"50","DistrictID":"219","Address":"Qu\u1ed1c l\u1ed9 27 \u2013 Ch\u1ee3 Trung H\u00f2a \u2013 H C\u01b0 Kuin \u2013 \u0110\u0103k L\u0103k","BankName":"Co-opbank","BankLogo":"\/uploads\/2016\/09\/20\/thebank_logo_1474341350.png"},{"ID":"6429","Name":"PGD S\u1ed1 2_CN \u0110\u0103kl\u0103k","Phone":"0500.3834155","Fax":"---","LongLat":"12.8199071,108.0768123","ProvinceID":"50","DistrictID":"220","Address":"63 H\u00f9ng V\u01b0\u01a1ng \u2013 TT Qu\u1ea3ng Ph\u00fa \u2013 H C\u01b0 Mgar \u2013 \u0110\u0103k L\u0103k","BankName":"Co-opbank","BankLogo":"\/uploads\/2016\/09\/20\/thebank_logo_1474341350.png"},{"ID":"6541","Name":"PGD s\u1ed1 4_CN Thanh H\u00f3a","Phone":"0378797868","Fax":"---","LongLat":"19.8207285,105.6046002","ProvinceID":"87","DistrictID":"618","Address":"TT Tri\u1ec7u S\u01a1n \u2013 Huy\u1ec7n Tri\u1ec7u S\u01a1n \u2013 Thanh H\u00f3a","BankName":"Co-opbank","BankLogo":"\/uploads\/2016\/09\/20\/thebank_logo_1474341350.png"},{"ID":"6542","Name":"PGD V\u0169 Th\u01b0_CN Th\u00e1i B\u00ecnh","Phone":"0363 615879","Fax":"---","LongLat":"20.4343787,106.2757514","ProvinceID":"85","DistrictID":"587","Address":"Huy\u1ec7n V\u0169 Th\u01b0 \u2013 Th\u00e1i B\u00ecnh","BankName":"Co-opbank","BankLogo":"\/uploads\/2016\/09\/20\/thebank_logo_1474341350.png"},{"ID":"6543","Name":"PGD Ba La_CN H\u00e0 T\u00e2y","Phone":"043 3554784","Fax":"---","LongLat":"21.032379,105.829348","ProvinceID":"32","DistrictID":"4","Address":"168 Nguy\u1ec5n Th\u00e1i H\u1ecdc \u2013 Quang Trung \u2013 H\u00e0 \u0110\u00f4ng \u2013 H\u00e0 N\u1ed9i","BankName":"Co-opbank","BankLogo":"\/uploads\/2016\/09\/20\/thebank_logo_1474341350.png"},{"ID":"6544","Name":"PGD s\u1ed1 3_CN H\u00e0 T\u00e2y","Phone":"043 3827433","Fax":"---","LongLat":"20.9786876,105.771796","ProvinceID":"32","DistrictID":"4","Address":"Ph\u01b0\u1eddng V\u1ea1n Ph\u00fac \u2013 Qu\u1eadn H\u00e0 \u0110\u00f4ng \u2013 H\u00e0 N\u1ed9i","BankName":"Co-opbank","BankLogo":"\/uploads\/2016\/09\/20\/thebank_logo_1474341350.png"},{"ID":"6545","Name":"PGD Kim \u0110\u1ed9ng _CN H\u01b0ng Y\u00ean","Phone":"0321 3810716","Fax":"---","LongLat":"20.7375195,106.0698963","ProvinceID":"62","DistrictID":"690","Address":"Ph\u1ed1 Ng\u00e0ng \u2013 TT L\u01b0\u01a1ng B\u1eb1ng \u2013 Huy\u1ec7n Kim \u0110\u1ed9ng \u2013 T\u1ec9nh H\u01b0ng Y\u00ean","BankName":"Co-opbank","BankLogo":"\/uploads\/2016\/09\/20\/thebank_logo_1474341350.png"},{"ID":"6546","Name":"PGD \u0110\u00f4ng H\u01b0ng _CN Th\u00e1i B\u00ecnh","Phone":"0363555899","Fax":"---","LongLat":"20.5561898,106.3544734","ProvinceID":"85","DistrictID":"581","Address":"TT \u0110\u00f4ng H\u01b0ng \u2013 Huy\u1ec7n \u0110\u00f4ng H\u01b0ng \u2013 Th\u00e1i B\u00ecnh","BankName":"Co-opbank","BankLogo":"\/uploads\/2016\/09\/20\/thebank_logo_1474341350.png"},{"ID":"6547","Name":"PGD S\u1ed1 1 T\u1eeb S\u01a1n_CN B\u1eafc Ninh","Phone":"02413840668 \u2013 02143840688","Fax":"---","LongLat":"21.1246246,105.9582372","ProvinceID":"42","DistrictID":"159","Address":"T\u00f2a nh\u00e0 Nam H\u1ed3ng \u2013 T\u1eeb S\u01a1n \u2013 B\u1eafc Ninh","BankName":"Co-opbank","BankLogo":"\/uploads\/2016\/09\/20\/thebank_logo_1474341350.png"},{"ID":"6548","Name":"PGD S\u1ed1 2_CN H\u1ea3i D\u01b0\u01a1ng","Phone":"0320 3551119","Fax":"---","LongLat":"20.9373413,106.3145542","ProvinceID":"59","DistrictID":"328","Address":"S\u1ed1 4 Ph\u1ed1 Tuy H\u00f2a \u2013 TP. H\u1ea3i D\u01b0\u01a1ng \u2013 T\u1ec9nh H\u1ea3i D\u01b0\u01a1ng","BankName":"Co-opbank","BankLogo":"\/uploads\/2016\/09\/20\/thebank_logo_1474341350.png"},{"ID":"6549","Name":"PGD s\u1ed1 5_CN Hai B\u00e0 Tr\u01b0ng","Phone":"04 39260578","Fax":"---","LongLat":"21.032613,105.854534","ProvinceID":"32","DistrictID":"6","Address":"S\u1ed1 71 Nguy\u1ec5n H\u1eefu Hu\u00e2n \u2013 Qu\u1eadn Ho\u00e0n Ki\u1ebfm \u2013 H\u00e0 N\u1ed9i","BankName":"Co-opbank","BankLogo":"\/uploads\/2016\/09\/20\/thebank_logo_1474341350.png"},{"ID":"6550","Name":"PGD L\u00ea\u0323 Thu\u0309y_CN Qua\u0309ng Bi\u0300nh","Phone":"0523825217","Fax":"---","LongLat":"17.2240932,106.7898163","ProvinceID":"77","DistrictID":"488","Address":"TT Ki\u00ea\u0301n Giang \u2013 Huy\u00ea\u0323n L\u00ea\u0323 Thuy\u0309 \u2013 Qua\u0309ng Bi\u0300nh","BankName":"Co-opbank","BankLogo":"\/uploads\/2016\/09\/20\/thebank_logo_1474341350.png"},{"ID":"6551","Name":"PGD \u0110\u1ed3ng H\u1edbi_CN Qu\u1ea3ng B\u00ecnh","Phone":"052 3845399","Fax":"---","LongLat":"17.4637743,106.6255532","ProvinceID":"77","DistrictID":"493","Address":"21 M\u1eb9 Su\u1ed1t \u2013 TP \u0110\u1ed3ng H\u1edbi \u2013 T\u1ec9nh Qu\u1ea3ng B\u00ecnh","BankName":"Co-opbank","BankLogo":"\/uploads\/2016\/09\/20\/thebank_logo_1474341350.png"},{"ID":"6552","Name":"PGD s\u1ed1 2_CN Thanh H\u00f3a","Phone":"0373.726550","Fax":"---","LongLat":"19.8045364,105.7789658","ProvinceID":"87","DistrictID":"621","Address":"177 L\u00ea Ho\u00e0n \u2013 Ph\u01b0\u1eddng Lam S\u01a1n \u2013 TP. Thanh Ho\u00e1 \u2013 T\u1ec9nh Thanh H\u00f3a","BankName":"Co-opbank","BankLogo":"\/uploads\/2016\/09\/20\/thebank_logo_1474341350.png"},{"ID":"6553","Name":"PGD s\u1ed1 2_CN Ngh\u1ec7 An","Phone":"0383.567106","Fax":"---","LongLat":"18.6865798,105.6794008","ProvinceID":"72","DistrictID":"447","Address":"S\u1ed1 1 Nguy\u1ec5n S\u1ef9 S\u00e1ch \u2013 TP Vinh \u2013 Ngh\u1ec7 An","BankName":"Co-opbank","BankLogo":"\/uploads\/2016\/09\/20\/thebank_logo_1474341350.png"},{"ID":"6554","Name":"PGD Minh khai_CN Ngh\u1ec7 An","Phone":"0383 589096","Fax":"---","LongLat":"18.6769725,105.6757353","ProvinceID":"72","DistrictID":"447","Address":"S\u1ed1 16 \u0110\u01b0\u1eddng Minh Khai \u2013 TP Vinh \u2013 T\u1ec9nh Ngh\u1ec7 an","BankName":"Co-opbank","BankLogo":"\/uploads\/2016\/09\/20\/thebank_logo_1474341350.png"},{"ID":"6555","Name":"PGD s\u1ed1 01_CN V\u0129nh Ph\u00fac","Phone":"0211 3761555","Fax":"---","LongLat":"21.214175,105.5650239","ProvinceID":"93","DistrictID":"671","Address":"Th\u00f4n L\u0169ng Th\u01b0\u1ee3ng \u2013 x\u00e3 Tam H\u1ed3ng \u2013 huy\u1ec7n Y\u00ean L\u1ea1c \u2013 V\u0129nh Ph\u00fac","BankName":"Co-opbank","BankLogo":"\/uploads\/2016\/09\/20\/thebank_logo_1474341350.png"},{"ID":"6556","Name":"PGD V\u0103n Giang_CN H\u01b0ng Y\u00ean","Phone":"0321 3933038","Fax":"---","LongLat":"20.9394443,105.9259271","ProvinceID":"62","DistrictID":"694","Address":"Th\u1ecb Tr\u1ea5n V\u0103n Giang \u2013 Huy\u1ec7n V\u0103n Giang \u2013 H\u01b0ng Y\u00ean","BankName":"Co-opbank","BankLogo":"\/uploads\/2016\/09\/20\/thebank_logo_1474341350.png"},{"ID":"6557","Name":"PGD \u00c2n Thi_CN H\u01b0ng Y\u00ean","Phone":"0321 3832800","Fax":"---","LongLat":"20.8099609,106.099291","ProvinceID":"62","DistrictID":"62","Address":"Ch\u1ee3 Thi \u2013 Huy\u1ec7n \u00c2n Thi \u2013 T\u1ec9nh H\u01b0ng Y\u00ean","BankName":"Co-opbank","BankLogo":"\/uploads\/2016\/09\/20\/thebank_logo_1474341350.png"},{"ID":"6558","Name":"PGD s\u1ed1 1_CN Ph\u00fa Th\u1ecd","Phone":"02103 857769","Fax":"---","LongLat":"21.3106041,105.4004387","ProvinceID":"75","DistrictID":"476","Address":"SN 3075 \u0110\u1ea1i L\u1ed9 H\u00f9ng V\u01b0\u01a1ng \u2013 T.P Vi\u1ec7t Tr\u00ec \u2013 Ph\u00fa Th\u1ecd","BankName":"Co-opbank","BankLogo":"\/uploads\/2016\/09\/20\/thebank_logo_1474341350.png"},{"ID":"6559","Name":"PGD s\u1ed1 6 _CN Thanh H\u00f3a","Phone":"037 3628345","Fax":"---","LongLat":"19.9981878,105.993491","ProvinceID":"87","DistrictID":"605","Address":"Ti\u1ec3u khu H\u01b0ng Long \u2013 Trung t\u00e2m th\u01b0\u01a1ng m\u1ea1i Nga S\u01a1n \u2013 H. Nga S\u01a1n \u2013 Thanh H\u00f3a","BankName":"Co-opbank","BankLogo":"\/uploads\/2016\/09\/20\/thebank_logo_1474341350.png"},{"ID":"6560","Name":"PGD \u0110\u1eadp \u0110\u00e1_CN B\u00ecnh \u0110\u1ecbnh","Phone":"056 3539988","Fax":"---","LongLat":"13.9227714,109.0906471","ProvinceID":"44","DistrictID":"170","Address":"04 Ph\u01b0\u01a1ng Danh \u2013 \u0110\u1eadp \u0110\u00e1 \u2013 Th\u1ecb x\u00e3 An Nh\u01a1n \u2013 T\u1ec9nh B\u00ecnh \u0110\u1ecbnh","BankName":"Co-opbank","BankLogo":"\/uploads\/2016\/09\/20\/thebank_logo_1474341350.png"},{"ID":"6561","Name":"PGD \u0110\u00e0 L\u1ea1t \u2013 L\u00e2m \u0110\u1ed3ng","Phone":"063.3511313","Fax":"---","LongLat":"11.9440252,108.4358958","ProvinceID":"67","DistrictID":"683","Address":"S\u1ed1 7 \u2013 Khu Ho\u00e0 B\u00ecnh \u2013 Ph\u01b0\u1eddng 1 \u2013 TP. \u0110\u00e0 l\u1ea1t \u2013 L\u00e2m \u0110\u1ed3ng","BankName":"Co-opbank","BankLogo":"\/uploads\/2016\/09\/20\/thebank_logo_1474341350.png"},{"ID":"6562","Name":"PGD Qu\u1ea3ng Tr\u1ea1ch_CN Qu\u1ea3ng B\u00ecnh","Phone":"052 3519242","Fax":"---","LongLat":"17.7555407,106.4199755","ProvinceID":"77","DistrictID":"491","Address":"TT Ba \u0110\u1ed3n \u2013 Huy\u1ec7n Qu\u1ea3ng Tr\u1ea1ch \u2013 T\u1ec9nh Qu\u1ea3ng B\u00ecnh","BankName":"Co-opbank","BankLogo":"\/uploads\/2016\/09\/20\/thebank_logo_1474341350.png"},{"ID":"6563","Name":"PGD s\u00f4\u0301 3 \u2013 CN B\u00ecnh \u0110\u1ecbnh","Phone":"0563815095","Fax":"---","LongLat":"13.7746428,109.2318195","ProvinceID":"44","DistrictID":"179","Address":"119 Phan B\u00f4\u0323i Ch\u00e2u \u2013 TP.Quy Nh\u01a1n \u2013 B\u00ecnh \u0110\u1ecbnh","BankName":"Co-opbank","BankLogo":"\/uploads\/2016\/09\/20\/thebank_logo_1474341350.png"},{"ID":"6564","Name":"PGD B\u1ed1 Tr\u1ea1ch_CN Qu\u1ea3ng B\u00ecnh","Phone":"052 3863299","Fax":"---","LongLat":"17.5858659,106.5260001","ProvinceID":"77","DistrictID":"487","Address":"TT Ho\u00e0n L\u00e3o \u2013 Huy\u1ec7n B\u1ed1 Tr\u1ea1ch \u2013 T\u1ec9nh Qu\u1ea3ng B\u00ecnh","BankName":"Co-opbank","BankLogo":"\/uploads\/2016\/09\/20\/thebank_logo_1474341350.png"},{"ID":"6565","Name":"PGD Kho\u00e1i Ch\u00e2u_CN H\u01b0ng Y\u00ean","Phone":"0321 3910998","Fax":"---","LongLat":"20.8313956,105.9809964","ProvinceID":"62","DistrictID":"689","Address":"TT Kho\u00e1i Ch\u00e2u \u2013 Huy\u1ec7n Kho\u00e1i Ch\u00e2u \u2013 T\u1ec9nh H\u01b0ng Y\u00ean","BankName":"Co-opbank","BankLogo":"\/uploads\/2016\/09\/20\/thebank_logo_1474341350.png"},{"ID":"6566","Name":"PGD s\u1ed1 02 _CN V\u0129nh Ph\u00fac","Phone":"0211 3761555","Fax":"---","LongLat":"21.2781504,105.4551365","ProvinceID":"93","DistrictID":"670","Address":"X\u00e3 B\u1ed3 Sao \u2013 Huy\u1ec7n V\u0129nh T\u01b0\u1eddng \u2013 T\u1ec9nh V\u0129nh Ph\u00fac","BankName":"Co-opbank","BankLogo":"\/uploads\/2016\/09\/20\/thebank_logo_1474341350.png"},{"ID":"6567","Name":"PGD Nam S\u00e1ch_ CN H\u1ea3i D\u01b0\u01a1ng","Phone":"0320 3754587","Fax":"---","LongLat":"20.9943083,106.3345567","ProvinceID":"59","DistrictID":"323","Address":"S\u1ed1 604 \u0111\u01b0\u1eddng Tr\u1ea7n Ph\u00fa TT Nam S\u00e1ch \u2013 H. Nam S\u00e1ch \u2013 H\u1ea3i D\u01b0\u01a1ng","BankName":"Co-opbank","BankLogo":"\/uploads\/2016\/09\/20\/thebank_logo_1474341350.png"},{"ID":"6568","Name":"PGD Qu\u1ea3ng Tr\u1ecb_CN Qu\u1ea3ng B\u00ecnh","Phone":"052 3519242","Fax":"---","LongLat":"16.81948,107.1028487","ProvinceID":"81","DistrictID":"548","Address":"P1 Th\u00e0nh ph\u1ed1 \u0110\u00f4ng H\u00e0 \u2013 Qu\u1ea3ng Tr\u1ecb","BankName":"Co-opbank","BankLogo":"\/uploads\/2016\/09\/20\/thebank_logo_1474341350.png"},{"ID":"6569","Name":"PGD s\u1ed1 1_CN Th\u00e1i B\u00ecnh","Phone":"0363.834.530","Fax":"---","LongLat":"20.4482335,106.3414778","ProvinceID":"85","DistrictID":"588","Address":"S\u1ed1 6 Ph\u1ed1 L\u00ea L\u1ee3i \u2013 TP. Th\u00e1i B\u00ecnh \u2013 T\u1ec9nh Th\u00e1i B\u00ecnh","BankName":"Co-opbank","BankLogo":"\/uploads\/2016\/09\/20\/thebank_logo_1474341350.png"},{"ID":"6570","Name":"PGD s\u1ed1 3_CN Thanh H\u00f3a","Phone":"0373.772.237","Fax":"---","LongLat":"19.9699898,105.6515167","ProvinceID":"87","DistrictID":"620","Address":"Khu 2 TT Qu\u00e1n L\u00e0o \u2013 Huy\u1ec7n Y\u00ean \u0110\u1ecbnh \u2013 Thanh H\u00f3a","BankName":"Co-opbank","BankLogo":"\/uploads\/2016\/09\/20\/thebank_logo_1474341350.png"},{"ID":"6571","Name":"PGD H\u00e0 T\u0129nh_CN Ngh\u1ec7 An","Phone":"0393.880580","Fax":"---","LongLat":"18.3404261,105.9032104","ProvinceID":"58","DistrictID":"316","Address":"S\u1ed1 44 Nguy\u1ec5n C\u00f4ng Tr\u1ee9 \u2013 TP H\u00e0 T\u0129nh, T\u1ec9nh H\u00e0 T\u0129nh","BankName":"Co-opbank","BankLogo":"\/uploads\/2016\/09\/20\/thebank_logo_1474341350.png"},{"ID":"6572","Name":"PGD Thanh Ha\u0300","Phone":"---","Fax":"---","LongLat":"20.908358,106.4276087","ProvinceID":"59","DistrictID":"325","Address":"Huy\u1ec7n Thanh Ha\u0300 \u2013 T\u1ec9nh H\u1ea3i D\u01b0\u01a1ng","BankName":"Co-opbank","BankLogo":"\/uploads\/2016\/09\/20\/thebank_logo_1474341350.png"},{"ID":"6573","Name":"PGD s\u1ed1 5_CN Thanh H\u00f3a","Phone":"0373 630456","Fax":"---","LongLat":"19.9121557,105.8906859","ProvinceID":"87","DistrictID":"601","Address":"TT H\u1eadu L\u1ed9c, Huy\u1ec7n H\u1eadu L\u1ed9c \u2013 T\u1ec9nh Thanh H\u00f3a","BankName":"Co-opbank","BankLogo":"\/uploads\/2016\/09\/20\/thebank_logo_1474341350.png"},{"ID":"6574","Name":"PGD T\u1ee9 K\u1ef3_ CN H\u1ea3i D\u01b0\u01a1ng","Phone":"0320.3892064","Fax":"---","LongLat":"20.817652,106.4081983","ProvinceID":"59","DistrictID":"327","Address":"TT T\u1ee9 K\u1ef3 \u2013 H T\u1ee9 K\u1ef3 \u2013 H\u1ea3i D\u01b0\u01a1ng","BankName":"Co-opbank","BankLogo":"\/uploads\/2016\/09\/20\/thebank_logo_1474341350.png"}]