[{"ID":"46","Name":"PH\u00d2NG GIAO D\u1ecaCH NGUY\u1ec4N L\u01af\u01a0NG B\u1eb0NG","Phone":"(04) 3 513 1161","Fax":"---","LongLat":"21.013939,105.827173","ProvinceID":"32","DistrictID":"3","Address":"214 Ph\u1ed1 Nguy\u1ec5n L\u01b0\u01a1ng B\u1eb1ng, P. Quang Trung, Q. \u0110\u1ed1ng \u0110a","BankName":"Southern Bank","BankLogo":"\/images\/bank\/southernbank.jpg"},{"ID":"70","Name":"PH\u00d2NG GIAO D\u1ecaCH B\u00ccNH CH\u00c1NH","Phone":"(08) 3 760 7368","Fax":"---","LongLat":"10.6773297,106.5843236","ProvinceID":"33","DistrictID":"44","Address":"10\/19 QL 1A, X.T\u00e2n Qu\u00fd T\u00e2y, H.B\u00ecnh Ch\u00e1nh","BankName":"Southern Bank","BankLogo":"\/images\/bank\/southernbank.jpg"},{"ID":"166","Name":"CHI NH\u00c1NH NH\u00c0 B\u00c8","Phone":"(08) 3784 0102 - 03 - 04 - 05","Fax":"---","LongLat":"10.7207589,106.702158","ProvinceID":"33","DistrictID":"48","Address":"T\u1ea7ng tr\u1ec7t t\u00f2a nh\u00e0 PV Gas - s\u1ed1 673 \u0111\u01b0\u1eddng Nguy\u1ec5n H\u1eefu Th\u1ecd, x\u00e3 Ph\u01b0\u1edbc Ki\u1ec3n, huy\u1ec7n Nh\u00e0 B\u00e8","BankName":"Southern Bank","BankLogo":"\/images\/bank\/southernbank.jpg"},{"ID":"193","Name":"PH\u00d2NG GIAO D\u1ecaCH TR\u1ea6N \u0110\u1ea0I NGH\u0128A","Phone":"(08) 3756 2839","Fax":"---","LongLat":"10.7226721,106.5996819","ProvinceID":"33","DistrictID":"72","Address":"16 Tr\u1ea7n \u0110\u1ea1i Ngh\u0129a, P. T\u00e2n T\u1ea1o A, Q. B\u00ecnh T\u00e2n","BankName":"Southern Bank","BankLogo":"\/images\/bank\/southernbank.jpg"},{"ID":"241","Name":"\u0110I\u1ec2M GIAO D\u1ecaCH AN L\u1ea0C","Phone":"(08) 3817 2170","Fax":"---","LongLat":"10.738516,106.620358","ProvinceID":"33","DistrictID":"72","Address":"31 \u0110\u01b0\u1eddng s\u1ed1 1, P. An L\u1ea1c, Q. B\u00ecnh T\u00e2n","BankName":"Southern Bank","BankLogo":"\/images\/bank\/southernbank.jpg"},{"ID":"288","Name":"PH\u00d2NG GIAO D\u1ecaCH QU\u1eacN 7","Phone":"(08) 3775 5001 - 02 - 03 - 04","Fax":"---","LongLat":"10.7389899,106.7099368","ProvinceID":"33","DistrictID":"69","Address":"463A Nguy\u1ec5n Th\u1ecb Th\u1eadp, P. T\u00e2n Phong, Q. 7","BankName":"Southern Bank","BankLogo":"\/images\/bank\/southernbank.jpg"},{"ID":"345","Name":"PH\u00d2NG GIAO D\u1ecaCH CAO V\u0102N L\u1ea6U","Phone":"(08) 5405 2646.","Fax":"---","LongLat":"10.7444870,106.6509980","ProvinceID":"33","DistrictID":"68","Address":"2 - 4 - 6 Cao V\u0103n L\u1ea7u, P .1, Q. 6","BankName":"Southern Bank","BankLogo":"\/images\/bank\/southernbank.jpg"},{"ID":"362","Name":"PH\u00d2NG GIAO D\u1ecaCH X\u00d3M C\u1ee6I","Phone":"(08) 3 9514849","Fax":"---","LongLat":"10.7455779,106.6585940","ProvinceID":"33","DistrictID":"70","Address":"384 - 386 T\u00f9ng Thi\u1ec7n V\u01b0\u01a1ng, P. 13, Q.8","BankName":"Southern Bank","BankLogo":"\/images\/bank\/southernbank.jpg"},{"ID":"379","Name":"PH\u00d2NG GIAO D\u1ecaCH B\u00ccNH PH\u00da","Phone":"(08) 3755 5982 - 83 - 84 - 85","Fax":"---","LongLat":"10.747475,106.632589","ProvinceID":"33","DistrictID":"68","Address":"697 - 699 H\u1eadu Giang, P. 11, Q. 6","BankName":"Southern Bank","BankLogo":"\/images\/bank\/southernbank.jpg"},{"ID":"389","Name":"PH\u00d2NG GIAO D\u1ecaCH B\u00ccNH T\u00c2Y","Phone":"(08) 3 857 6384","Fax":"---","LongLat":"10.750395,106.6530311","ProvinceID":"33","DistrictID":"68","Address":"14 Th\u00e1p M\u01b0\u1eddi, P.2, Q.6","BankName":"Southern Bank","BankLogo":"\/images\/bank\/southernbank.jpg"},{"ID":"430","Name":"PH\u00d2NG GIAO D\u1ecaCH KINH D\u01af\u01a0NG V\u01af\u01a0NG","Phone":"(08) 5 406 2760","Fax":"---","LongLat":"10.7504688,106.6298032","ProvinceID":"33","DistrictID":"68","Address":"445 Kinh D\u01b0\u01a1ng V\u01b0\u01a1ng, P. 12, Q. 6","BankName":"Southern Bank","BankLogo":"\/images\/bank\/southernbank.jpg"},{"ID":"439","Name":"PH\u00d2NG GIAO D\u1ecaCH CH\u1ee2 L\u1edaN","Phone":"(08) 3 960 0234","Fax":"---","LongLat":"10.7512541,106.6505742","ProvinceID":"33","DistrictID":"68","Address":"46 L\u00ea Quang Sung, P.2, Q6","BankName":"Southern Bank","BankLogo":"\/images\/bank\/southernbank.jpg"},{"ID":"466","Name":"CHI NH\u00c1NH L\u01af\u01a0NG NH\u1eee H\u1eccC","Phone":"(08) 3 8539 456","Fax":"---","LongLat":"10.7527245,106.6600048","ProvinceID":"33","DistrictID":"67","Address":"153- 161 L\u01b0\u01a1ng Nh\u1eef H\u1ecdc, P.11, Q. 5","BankName":"Southern Bank","BankLogo":"\/images\/bank\/southernbank.jpg"},{"ID":"491","Name":"PH\u00d2NG GIAO D\u1ecaCH HU\u1ef2NH T\u1ea4N PH\u00c1T ","Phone":"(08) 3 7733466","Fax":"---","LongLat":"10.743723,106.729527","ProvinceID":"33","DistrictID":"69","Address":"527 Hu\u1ef3nh T\u1ea5n Ph\u00e1t, P.T\u00e2n Thu\u1eadn \u0110\u00f4ng, Qu\u1eadn 7","BankName":"Southern Bank","BankLogo":"\/images\/bank\/southernbank.jpg"},{"ID":"523","Name":"CHI NH\u00c1NH TR\u1ea6N H\u01afNG \u0110\u1ea0O","Phone":"(08) 3 924 0263","Fax":"---","LongLat":"10.7533358,106.6737163","ProvinceID":"33","DistrictID":"67","Address":"1093 - 1095 - 1097 - 1099 Tr\u1ea7n H\u01b0ng \u0110\u1ea1o, P.5, Q.5","BankName":"Southern Bank","BankLogo":"\/images\/bank\/southernbank.jpg"},{"ID":"543","Name":"PH\u00d2NG GIAO D\u1ecaCH C\u00c2Y G\u00d5","Phone":"(08) 3969 9840 - 41 - 42 - 43","Fax":"---","LongLat":"10.7539664,106.6452897","ProvinceID":"33","DistrictID":"51","Address":"621 H\u1ed3ng B\u00e0ng, P. 6, Q. 6","BankName":"Southern Bank","BankLogo":"\/images\/bank\/southernbank.jpg"},{"ID":"624","Name":"PH\u00d2NG GIAO D\u1ecaCH NGUY\u1ec4N TRI PH\u01af\u01a0NG","Phone":"(08) 5 405 2425","Fax":"---","LongLat":"10.7540684,106.6695696","ProvinceID":"33","DistrictID":"67","Address":"99 Nguy\u1ec5n Tri Ph\u01b0\u01a1ng, P. 7, Q. 5","BankName":"Southern Bank","BankLogo":"\/images\/bank\/southernbank.jpg"},{"ID":"633","Name":"PH\u00d2NG GIAO D\u1ecaCH H\u1ed2NG B\u00c0NG","Phone":"(08) 3 950 7690","Fax":"---","LongLat":"10.7546955,106.6596883","ProvinceID":"33","DistrictID":"67","Address":"321 H\u1ed3ng B\u00e0ng, P.11, Q.5","BankName":"Southern Bank","BankLogo":"\/images\/bank\/southernbank.jpg"},{"ID":"645","Name":"CHI NH\u00c1NH MINH PH\u1ee4NG","Phone":"(08) 3 960 6050","Fax":"---","LongLat":"10.7555809,106.6435897","ProvinceID":"33","DistrictID":"51","Address":"258 Minh Ph\u1ee5ng, P.2, Q.11","BankName":"Southern Bank","BankLogo":"\/images\/bank\/southernbank.jpg"},{"ID":"658","Name":"QU\u1ef8 TI\u1ebeT KI\u1ec6M NGUY\u1ec4N TR\u00c3I","Phone":"(08) 3924 6870 - 71 - 72 - 73","Fax":"---","LongLat":"10.7572041,106.6782546","ProvinceID":"33","DistrictID":"67","Address":"160 Nguy\u1ec5n Tr\u00e3i, P. 3, Q. 5","BankName":"Southern Bank","BankLogo":"\/images\/bank\/southernbank.jpg"},{"ID":"699","Name":"PH\u00d2NG GIAO D\u1ecaCH NGUY\u1ec4N DUY D\u01af\u01a0NG ","Phone":"(08) 3 830 0640","Fax":"---","LongLat":"10.7575519,106.6717100","ProvinceID":"33","DistrictID":"67","Address":"81 Nguy\u1ec5n Duy D\u01b0\u01a1ng, P.9, Q.5","BankName":"Southern Bank","BankLogo":"\/images\/bank\/southernbank.jpg"},{"ID":"708","Name":"PH\u00d2NG GIAO D\u1ecaCH NGUY\u1ec4N CH\u00cd THANH","Phone":"(08) 3 957 3711","Fax":"---","LongLat":"10.7584690,106.6616517","ProvinceID":"33","DistrictID":"67","Address":"197 Nguy\u1ec5n Ch\u00ed Thanh, P. 12, Q. 5","BankName":"Southern Bank","BankLogo":"\/images\/bank\/southernbank.jpg"},{"ID":"736","Name":"PH\u00d2NG GIAO D\u1ecaCH KH\u00c1NH H\u1ed8I","Phone":"(08) 3943 2113 - 14 - 15 - 16","Fax":"---","LongLat":"10.7584742,106.6994118","ProvinceID":"33","DistrictID":"66","Address":"215 Kh\u00e1nh H\u1ed9i, P. 3, Q. 4","BankName":"Southern Bank","BankLogo":"\/images\/bank\/southernbank.jpg"},{"ID":"776","Name":"PH\u00d2NG GIAO D\u1ecaCH PH\u00d3 C\u01a0 \u0110I\u1ec0U","Phone":"(08) 3 956 0951","Fax":"---","LongLat":"10.7593491,106.6570920","ProvinceID":"33","DistrictID":"51","Address":"121 - 123 Ph\u00f3 C\u01a1 \u0110i\u1ec1u, P.4, Q.11","BankName":"Southern Bank","BankLogo":"\/images\/bank\/southernbank.jpg"},{"ID":"787","Name":"PH\u00d2NG GIAO D\u1ecaCH L\u00dd TH\u01af\u1edcNG KI\u1ec6T","Phone":"(08) 3 971 7329","Fax":"---","LongLat":"10.7607140,106.6608739","ProvinceID":"33","DistrictID":"50","Address":"107 L\u00fd Th\u01b0\u1eddng Ki\u1ec7t, P.7, Q. T\u00e2n B\u00ecnh","BankName":"Southern Bank","BankLogo":"\/images\/bank\/southernbank.jpg"},{"ID":"824","Name":"CHI NH\u00c1NH 3 TH\u00c1NG 2","Phone":"(08) 3 965 0481","Fax":"---","LongLat":"10.7620594,106.6567041","ProvinceID":"33","DistrictID":"51","Address":"970 \u0111\u01b0\u1eddng 3\/2, Ph\u01b0\u1eddng 12, Qu\u1eadn 11","BankName":"Southern Bank","BankLogo":"\/images\/bank\/southernbank.jpg"},{"ID":"834","Name":"PH\u00d2NG GIAO D\u1ecaCH B\u00ccNH T\u00c2N","Phone":"(08) 3754 5746","Fax":"---","LongLat":"10.7623139,106.5937658","ProvinceID":"33","DistrictID":"72","Address":"955 T\u1ec9nh L\u1ed9 10, KP 8, P. T\u00e2n T\u1ea1o, Q. B\u00ecnh T\u00e2n","BankName":"Southern Bank","BankLogo":"\/images\/bank\/southernbank.jpg"},{"ID":"876","Name":"PH\u00d2NG GIAO D\u1ecaCH S\u01af V\u1ea0N H\u1ea0NH","Phone":"(08) 3979 7660 - 61 - 62","Fax":"---","LongLat":"10.765921,106.671943","ProvinceID":"33","DistrictID":"50","Address":"453 S\u01b0 V\u1ea1n H\u1ea1nh (n\u1ed1i d\u00e0i), P. 12, Q. 10","BankName":"Southern Bank","BankLogo":"\/images\/bank\/southernbank.jpg"},{"ID":"965","Name":"PH\u00d2NG GIAO D\u1ecaCH L\u00ca V\u0102N S\u1ef8","Phone":"(08) 39 311 875","Fax":"---","LongLat":"10.7672699,106.6675633","ProvinceID":"33","DistrictID":"50","Address":"260 L\u00ea V\u0103n S\u1ef9, P.14, Q.3","BankName":"Southern Bank","BankLogo":"\/images\/bank\/southernbank.jpg"},{"ID":"990","Name":"\u0110I\u1ec2M GIAO D\u1ecaCH S\u00c0I G\u00d2N","Phone":"(08) 3821 5996","Fax":"---","LongLat":"10.767639,106.700227","ProvinceID":"33","DistrictID":"49","Address":"236-238 (t\u1ea7ng 6) Nguy\u1ec5n C\u00f4ng Tr\u1ee9, Q. 1","BankName":"Southern Bank","BankLogo":"\/images\/bank\/southernbank.jpg"},{"ID":"1008","Name":"CHI NH\u00c1NH L\u00dd TH\u00c1I T\u1ed4","Phone":"(08) 3 927 3048","Fax":"---","LongLat":"10.7678602,106.6742742","ProvinceID":"33","DistrictID":"50","Address":"374 - 376 L\u00fd Th\u00e1i T\u1ed5, P.10, Q.10","BankName":"Southern Bank","BankLogo":"\/images\/bank\/southernbank.jpg"},{"ID":"1035","Name":"PH\u00d2NG GIAO D\u1ecaCH NGUY\u1ec4N TH\u00c1I B\u00ccNH","Phone":"(08) 3915 3312","Fax":"---","LongLat":"10.7682501,106.6986823","ProvinceID":"33","DistrictID":"49","Address":"132 Nguy\u1ec5n Th\u00e1i B\u00ecnh, P. Nguy\u1ec5n Th\u00e1i B\u00ecnh, Q. 1","BankName":"Southern Bank","BankLogo":"\/images\/bank\/southernbank.jpg"},{"ID":"1075","Name":"PH\u00d2NG GIAO D\u1ecaCH H\u01afNG PH\u00da","Phone":"(08) 3 974 0899","Fax":"---","LongLat":"10.7682923,106.6510194","ProvinceID":"33","DistrictID":"51","Address":"58 B\u00ecnh Th\u1edbi, P.14, Q.11","BankName":"Southern Bank","BankLogo":"\/images\/bank\/southernbank.jpg"},{"ID":"1121","Name":"PH\u00d2NG GIAO D\u1ecaCH B\u00d9I TH\u1eca XU\u00c2N","Phone":"(08) 6 291 5461","Fax":"---","LongLat":"10.768187,106.686868","ProvinceID":"0","DistrictID":"0","Address":"81B B\u00f9i Th\u1ecb Xu\u00e2n, P. Ph\u1ea1m Ng\u0169 L\u00e3o, Q. 1","BankName":"Southern Bank","BankLogo":"\/images\/bank\/southernbank.jpg"},{"ID":"1189","Name":"PH\u00d2NG GIAO D\u1ecaCH QU\u1eacN 10","Phone":"(08) 5405 2660","Fax":"---","LongLat":"10.7695927,106.6583836","ProvinceID":"33","DistrictID":"50","Address":"90A4 L\u00fd Th\u01b0\u1eddng Ki\u1ec7t, Ph\u01b0\u1eddng 14, Qu\u1eadn 10","BankName":"Southern Bank","BankLogo":"\/images\/bank\/southernbank.jpg"},{"ID":"1226","Name":"CHI NH\u00c1NH NGUY\u1ec4N C\u00d4NG TR\u1ee8","Phone":"(08) 5 404 3546","Fax":"---","LongLat":"10.7698996,106.7034942","ProvinceID":"33","DistrictID":"49","Address":"44-50-52-54 Nguy\u1ec5n C\u00f4ng Tr\u1ee9, P. Nguy\u1ec5n Th\u00e1i B\u00ecnh, Q. 1","BankName":"Southern Bank","BankLogo":"\/images\/bank\/southernbank.jpg"},{"ID":"1235","Name":"CHI NH\u00c1NH S\u00c0I G\u00d2N","Phone":"(08) 3 925 6810","Fax":"---","LongLat":"10.7708061,106.6937470","ProvinceID":"33","DistrictID":"49","Address":"28 - 30 - 32 Nguy\u1ec5n Th\u1ecb Ngh\u0129a, P. B\u1ebfn Th\u00e0nh, Q.1","BankName":"Southern Bank","BankLogo":"\/images\/bank\/southernbank.jpg"},{"ID":"1272","Name":"PH\u00d2NG GIAO D\u1ecaCH L\u1ea0C LONG QU\u00c2N","Phone":"(08) 3975 5611 - 12 - 13 - 14","Fax":"---","LongLat":"10.7722553,106.6463041","ProvinceID":"33","DistrictID":"51","Address":"558 L\u1ea1c Long Qu\u00e2n, P. 5, Q. 11","BankName":"Southern Bank","BankLogo":"\/images\/bank\/southernbank.jpg"},{"ID":"1314","Name":"PH\u00d2NG GIAO D\u1ecaCH NGUY\u1ec4N TH\u1eca NH\u1ece","Phone":"(08) 3 866 9913","Fax":"---","LongLat":"10.772408,106.652859","ProvinceID":"33","DistrictID":"51","Address":"173Nguy\u1ec5n Th\u1ecb Nh\u1ecf, P.9, Q. T\u00e2n B\u00ecnh","BankName":"Southern Bank","BankLogo":"\/images\/bank\/southernbank.jpg"},{"ID":"1402","Name":"PH\u00d2NG GIAO D\u1ecaCH NG\u00d4 \u0110\u1ee8C K\u1ebe ","Phone":"(08) 3 914 7407","Fax":"---","LongLat":"10.77264,106.704669","ProvinceID":"33","DistrictID":"49","Address":"50 Ng\u00f4 \u0110\u1ee9c K\u1ebf, P. B\u1ebfn Ngh\u00e9, Q.1","BankName":"Southern Bank","BankLogo":"\/images\/bank\/southernbank.jpg"},{"ID":"1442","Name":"S\u1ede GIAO D\u1ecaCH ","Phone":"(08) 3 866 3898","Fax":"---","LongLat":"10.7746742,106.6569203","ProvinceID":"33","DistrictID":"51","Address":"279 L\u00fd Th\u01b0\u1eddng Ki\u1ec7t, P.15, Q.11","BankName":"Southern Bank","BankLogo":"\/images\/bank\/southernbank.jpg"},{"ID":"1487","Name":"CHI NH\u00c1NH \u00d0\u1ea0I NAM","Phone":"(08) 3 930 3370","Fax":"---","LongLat":"10.7747848,106.6886991","ProvinceID":"33","DistrictID":"65","Address":"158 V\u00f5 V\u0103n T\u1ea7n, P.6, Q.3","BankName":"Southern Bank","BankLogo":"\/images\/bank\/southernbank.jpg"},{"ID":"1570","Name":"PH\u00d2NG GIAO D\u1ecaCH L\u00ca TH\u00c1NH T\u00d4N","Phone":"(08) 3 823 5627","Fax":"---","LongLat":"10.7752538,106.7000234","ProvinceID":"33","DistrictID":"49","Address":"103 L\u00ea Th\u00e1nh T\u00f4n, P. B\u1ebfn Ngh\u00e9, Q.1","BankName":"Southern Bank","BankLogo":"\/images\/bank\/southernbank.jpg"},{"ID":"1586","Name":"PH\u00d2NG GIAO D\u1ecaCH L\u0168Y B\u00c1N B\u00cdCH","Phone":"(08) 3 973 6913","Fax":"---","LongLat":"10.7777886,106.6348135","ProvinceID":"33","DistrictID":"77","Address":"420 L\u0169y B\u00e1n B\u00edch, P. H\u00f2a Th\u1ea1nh, Q. T\u00e2n Ph\u00fa","BankName":"Southern Bank","BankLogo":"\/images\/bank\/southernbank.jpg"},{"ID":"1656","Name":"PH\u00d2NG GIAO D\u1ecaCH H\u00d2A H\u01afNG","Phone":"(08) 3 868 0600","Fax":"---","LongLat":"10.7824576,106.6717154","ProvinceID":"33","DistrictID":"50","Address":"35 T\u00f4 Hi\u1ebfn Th\u00e0nh, P.13, Q.10","BankName":"Southern Bank","BankLogo":"\/images\/bank\/southernbank.jpg"},{"ID":"1728","Name":"PH\u00d2NG GIAO D\u1ecaCH T\u00c2N B\u00ccNH","Phone":"(08) 5 434 8162","Fax":"---","LongLat":"10.7835432,106.6475111","ProvinceID":"33","DistrictID":"76","Address":"129 Ni S\u01b0 Hu\u1ef3nh Li\u00ean, P.10, Q. T\u00e2n B\u00ecnh","BankName":"Southern Bank","BankLogo":"\/images\/bank\/southernbank.jpg"},{"ID":"1859","Name":"PH\u00d2NG GIAO D\u1ecaCH QU\u1eacN 2","Phone":"(08) 3743 8134","Fax":"---","LongLat":"10.7847657,106.7573851","ProvinceID":"33","DistrictID":"64","Address":"250A Nguy\u1ec5n Th\u1ecb \u0110\u1ecbnh, P. B\u00ecnh Tr\u01b0ng T\u00e2y, Q. 2","BankName":"Southern Bank","BankLogo":"\/images\/bank\/southernbank.jpg"},{"ID":"2078","Name":"\u0110I\u1ec2M GIAO D\u1ecaCH B\u00d9I TH\u1eca XU\u00c2N","Phone":"(08) 6 291 4053","Fax":"---","LongLat":"10.7860199,106.6963273","ProvinceID":"33","DistrictID":"49","Address":"28 Ph\u00f9ng Kh\u1eafc Khoan, P. \u0110aKao, Q. 1","BankName":"Southern Bank","BankLogo":"\/images\/bank\/southernbank.jpg"},{"ID":"2182","Name":"\u0110I\u1ec2M GIAO D\u1ecaCH L\u00dd TH\u01af\u1edcNG KI\u1ec6T","Phone":"(08) 5434 8233","Fax":"---","LongLat":"10.78602,106.653862","ProvinceID":"33","DistrictID":"76","Address":"468 L\u00fd Th\u01b0\u1eddng Ki\u1ec7t, P. 7, Q. T\u00e2n B\u00ecnh","BankName":"Southern Bank","BankLogo":"\/images\/bank\/southernbank.jpg"},{"ID":"2447","Name":"PH\u00d2NG GIAO D\u1ecaCH V\u01af\u1edcN L\u00c0I","Phone":"(08) 3 812 6625","Fax":"---","LongLat":"10.787364,106.634108","ProvinceID":"33","DistrictID":"77","Address":"40 V\u01b0\u1eddn L\u00e0i, P. T\u00e2y Th\u1ea1nh, Q. T\u00e2n Ph\u00fa","BankName":"Southern Bank","BankLogo":"\/images\/bank\/southernbank.jpg"},{"ID":"2602","Name":"CHI NH\u00c1NH T\u00c2N \u0110\u1ecaNH","Phone":"(08) 3 823 7209","Fax":"---","LongLat":"10.787501,106.692376","ProvinceID":"33","DistrictID":"49","Address":"247-247Bis - 249 Hai B\u00e0 Tr\u01b0ng, P. 6, Q.3","BankName":"Southern Bank","BankLogo":"\/images\/bank\/southernbank.jpg"},{"ID":"2662","Name":"PH\u00d2NG GIAO D\u1ecaCH T\u00c2N H\u01af\u01a0NG","Phone":"(08) 3559 4251 - 52 - 53","Fax":"---","LongLat":"10.7894399,106.6259837","ProvinceID":"33","DistrictID":"77","Address":"161 - 163 T\u00e2n H\u01b0\u01a1ng, P. T\u00e2n Qu\u00fd, Q. T\u00e2n Ph\u00fa","BankName":"Southern Bank","BankLogo":"\/images\/bank\/southernbank.jpg"},{"ID":"2701","Name":"PH\u00d2NG GIAO D\u1ecaCH B\u00c0U C\u00c1T","Phone":"(08) 3949 1920 - 21 - 22","Fax":"---","LongLat":"10.7916478,106.641621","ProvinceID":"33","DistrictID":"76","Address":"200 Nguy\u1ec5n H\u1ed3ng \u0110\u00e0o, P. 14, Q. T\u00e2n B\u00ecnh","BankName":"Southern Bank","BankLogo":"\/images\/bank\/southernbank.jpg"},{"ID":"2702","Name":"PH\u00d2NG GIAO D\u1ecaCH C\u00c1CH M\u1ea0NG TH\u00c1NG T\u00c1M","Phone":"(08) 3977 1646 - 47 - 48 - 49","Fax":"---","LongLat":"10.7919008,106.6552841","ProvinceID":"33","DistrictID":"76","Address":"1083 C\u00e1ch M\u1ea1ng Th\u00e1ng T\u00e1m, P. 7, Q. T\u00e2n B\u00ecnh","BankName":"Southern Bank","BankLogo":"\/images\/bank\/southernbank.jpg"},{"ID":"2977","Name":"CHI NH\u00c1NH NGUY\u1ec4N V\u0102N TR\u1ed6I","Phone":"(08) 3 844 8324","Fax":"---","LongLat":"10.7926596,106.6805881","ProvinceID":"33","DistrictID":"75","Address":"29 - 31 Nguy\u1ec5n V\u0103n Tr\u1ed7i, P.12, Q. Ph\u00fa Nhu\u1eadn","BankName":"Southern Bank","BankLogo":"\/images\/bank\/southernbank.jpg"},{"ID":"3115","Name":"PH\u00d2NG GIAO D\u1ecaCH T\u00c2N S\u01a0N NH\u00cc","Phone":"(08) 3849 6010 - 11 - 12 - 13","Fax":"---","LongLat":"10.7957546,106.6299421","ProvinceID":"33","DistrictID":"76","Address":"362 T\u00e2n S\u01a1n Nh\u00ec, P. T\u00e2n S\u01a1n Nh\u00ec, Q. T\u00e2n Ph\u00fa","BankName":"Southern Bank","BankLogo":"\/images\/bank\/southernbank.jpg"},{"ID":"3269","Name":"PH\u00d2NG GIAO D\u1ecaCH TR\u01af\u1edcNG CHINH ","Phone":"(08) 5 4340430 - 31 - 32","Fax":"---","LongLat":"10.7980924,106.643638","ProvinceID":"33","DistrictID":"76","Address":"312 Tr\u01b0\u1eddng Chinh, P. 13, Q. T\u00e2n B\u00ecnh","BankName":"Southern Bank","BankLogo":"\/images\/bank\/southernbank.jpg"},{"ID":"3465","Name":"PH\u00d2NG GIAO D\u1ecaCH TR\u01af\u1edcNG CHINH ","Phone":"(08) 5 4340430 - 31 - 32","Fax":"---","LongLat":"10.7980924,106.6436380","ProvinceID":"33","DistrictID":"76","Address":"312 Tr\u01b0\u1eddng Chinh, P. 13, Q. T\u00e2n B\u00ecnh","BankName":"Southern Bank","BankLogo":"\/images\/bank\/southernbank.jpg"},{"ID":"3528","Name":"CHI NH\u00c1NH PH\u00da NHU\u1eacN ","Phone":"(08) 3 995 6801","Fax":"---","LongLat":"10.7983822,106.6806257","ProvinceID":"33","DistrictID":"75","Address":"328A Phan \u0110\u00ecnh Ph\u00f9ng, P.1, Q. Ph\u00fa Nhu\u1eadn","BankName":"Southern Bank","BankLogo":"\/images\/bank\/southernbank.jpg"},{"ID":"3584","Name":"PH\u00d2NG GIAO D\u1ecaCH TH\u1eca NGH\u00c8","Phone":"(08) 3512 3759 - 60 - 61- 62","Fax":"---","LongLat":"10.79722,106.710663","ProvinceID":"33","DistrictID":"73","Address":"165 X\u00f4 Vi\u1ebft Ngh\u1ec7 T\u0129nh, P. 17, Q. B\u00ecnh Th\u1ea1nh","BankName":"Southern Bank","BankLogo":"\/images\/bank\/southernbank.jpg"},{"ID":"3585","Name":"QU\u1ef8 TI\u1ebeT KI\u1ec6M HO\u00c0NG V\u0102N TH\u1ee4","Phone":"(08) 3997 7381 - 82 - 83","Fax":"---","LongLat":"10.799563,106.660031","ProvinceID":"33","DistrictID":"76","Address":"204 Ho\u00e0ng V\u0103n Th\u1ee5, P. 4, Q. T\u00e2n B\u00ecnh","BankName":"Southern Bank","BankLogo":"\/images\/bank\/southernbank.jpg"},{"ID":"3592","Name":"PH\u00d2NG GIAO D\u1ecaCH \u0110I\u1ec6N BI\u00caN PH\u1ee6","Phone":"(08) 3 512 7858","Fax":"---","LongLat":"10.801346,106.714392","ProvinceID":"33","DistrictID":"73","Address":"481B \u0110i\u1ec7n Bi\u00ean Ph\u1ee7, P. 25, Q. B\u00ecnh Th\u1ea1nh","BankName":"Southern Bank","BankLogo":"\/images\/bank\/southernbank.jpg"},{"ID":"3594","Name":"PH\u00d2NG GIAO D\u1ecaCH C\u1ed8NG H\u00d2A","Phone":"(08) 6 293 7925","Fax":"---","LongLat":"10.8021709,106.6455692","ProvinceID":"33","DistrictID":"76","Address":"344 C\u1ed9ng H\u00f2a, P.13, Q. T\u00e2n B\u00ecnh","BankName":"Southern Bank","BankLogo":"\/images\/bank\/southernbank.jpg"},{"ID":"3601","Name":"PH\u00d2NG GIAO D\u1ecaCH T\u00c2N S\u01a0N NH\u1ea4T","Phone":"(08) 6 268 0474","Fax":"10.8053694,106.6644519","LongLat":"10.805369,106.664449","ProvinceID":"33","DistrictID":"76","Address":"97 Tr\u1ea7n Qu\u1ed1c Ho\u00e0n, P.4, Q. T\u00e2n B\u00ecnh","BankName":"Southern Bank","BankLogo":"\/images\/bank\/southernbank.jpg"},{"ID":"3602","Name":"PH\u00d2NG GIAO D\u1ecaCH B\u00c0 CHI\u1ec2U","Phone":"(08) 35514205 - 06 - 07 - 08","Fax":"10.8105831,106.7091422","LongLat":"10.802564,106.698752","ProvinceID":"33","DistrictID":"73","Address":"382 B\u00f9i H\u1eefu Ngh\u0129a, Ph\u01b0\u1eddng 02, Qu\u1eadn B\u00ecnh Th\u1ea1nh","BankName":"Southern Bank","BankLogo":"\/images\/bank\/southernbank.jpg"},{"ID":"3609","Name":"PH\u00d2NG GIAO D\u1ecaCH PHAN V\u0102N TR\u1eca ","Phone":"(08) 6 258 1984","Fax":"10.8185635,106.6947126","LongLat":"10.818566,106.694723","ProvinceID":"33","DistrictID":"73","Address":"334N Phan V\u0103n Tr\u1ecb, P.11, Q. B\u00ecnh Th\u1ea1nh","BankName":"Southern Bank","BankLogo":"\/images\/bank\/southernbank.jpg"},{"ID":"3612","Name":"PH\u00d2NG GIAO D\u1ecaCH G\u00d2 V\u1ea4P","Phone":"(08) 3 589 7784","Fax":"10.8268832,106.678791","LongLat":"10.830084,106.670403","ProvinceID":"33","DistrictID":"74","Address":"342-342A Quang Trung, P.10, Q. G\u00f2 V\u1ea5p","BankName":"Southern Bank","BankLogo":"\/images\/bank\/southernbank.jpg"},{"ID":"3613","Name":"PH\u00d2NG GIAO D\u1ecaCH KH\u00c1NH H\u1ed8I","Phone":"(08) 3943 2113 - 14 - 15 - 16","Fax":"10.8279265,106.6913545","LongLat":"10.758445,106.699401","ProvinceID":"33","DistrictID":"66","Address":"215 Kh\u00e1nh H\u1ed9i, P. 3, Q. 4","BankName":"Southern Bank","BankLogo":"\/images\/bank\/southernbank.jpg"},{"ID":"3615","Name":"PH\u00d2NG GIAO D\u1ecaCH B\u00ccNH TRI\u1ec6U","Phone":"(08) 6 283 9546","Fax":"10.8321152,106.714046","LongLat":"10.832118,106.714062","ProvinceID":"33","DistrictID":"78","Address":"206 Qu\u1ed1c l\u1ed9 13, P. Hi\u1ec7p B\u00ecnh Ch\u00e1nh, Q. Th\u1ee7 \u0110\u1ee9c","BankName":"Southern Bank","BankLogo":"\/images\/bank\/southernbank.jpg"},{"ID":"3619","Name":"PH\u00d2NG GIAO D\u1ecaCH QU\u1eacN 12","Phone":"(08) 3 592 3908","Fax":"10.8370099,106.620115","LongLat":"10.83701,106.620125","ProvinceID":"33","DistrictID":"52","Address":"110 Tr\u01b0\u1eddng Chinh, P. \u0110\u00f4ng H\u01b0ng Thu\u1eadn, Q.12","BankName":"Southern Bank","BankLogo":"\/images\/bank\/southernbank.jpg"},{"ID":"3621","Name":"PH\u00d2NG GIAO D\u1ecaCH QU\u1eacN 9","Phone":"(08) 5409 4343","Fax":"10.8440963,106.7822170","LongLat":"10.844001,106.7825","ProvinceID":"33","DistrictID":"71","Address":"197 L\u00ea V\u0103n Vi\u1ec7t, P. Hi\u1ec7p Ph\u00fa, Q. 9","BankName":"Southern Bank","BankLogo":"\/images\/bank\/southernbank.jpg"},{"ID":"3626","Name":"PH\u00d2NG GIAO D\u1ecaCH TH\u1ee6 \u0110\u1ee8C","Phone":"(08) 3720 6986-87-88-89","Fax":"10.8512984,106.7569345","LongLat":"10.851301,106.756939","ProvinceID":"33","DistrictID":"78","Address":"46A V\u00f5 V\u0103n Ng\u00e2n , P. Tr\u01b0\u1eddng Th\u1ecd, Q. Th\u1ee7 \u0110\u1ee9c","BankName":"Southern Bank","BankLogo":"\/images\/bank\/southernbank.jpg"},{"ID":"3631","Name":"PH\u00d2NG GIAO D\u1ecaCH H\u00d3C M\u00d4N ","Phone":"(08) 6 251 1001","Fax":"---","LongLat":"10.8863934,106.5922924","ProvinceID":"33","DistrictID":"47","Address":"8\/1C, 8\/1K KP6, TT H\u00f3c M\u00f4n, H. H\u00f3c M\u00f4n","BankName":"Southern Bank","BankLogo":"\/images\/bank\/southernbank.jpg"},{"ID":"3633","Name":"PH\u00d2NG GIAO D\u1ecaCH C\u1ee6 CHI 1","Phone":"(08) 3 735 5777 - 78 - 79","Fax":"---","LongLat":"10.984841,106.559357","ProvinceID":"33","DistrictID":"46","Address":"\u1ea4p 1, X\u00e3 T\u00e2n Th\u1ea1nh T\u00e2y, H. C\u1ee7 Chi","BankName":"Southern Bank","BankLogo":"\/images\/bank\/southernbank.jpg"},{"ID":"3635","Name":"PH\u00d2NG GIAO D\u1ecaCH C\u1ee6 CHI","Phone":"(08) 54 390 829","Fax":"---","LongLat":"10.9720152,106.4807884","ProvinceID":"33","DistrictID":"46","Address":"166\/6E Qu\u1ed1c L\u1ed9 22, Th\u1ecb Tr\u1ea5n C\u1ee7 Chi","BankName":"Southern Bank","BankLogo":"\/images\/bank\/southernbank.jpg"},{"ID":"3636","Name":"PH\u00d2NG GIAO D\u1ecaCH H\u00c0 \u0110\u00d4NG","Phone":"(04) 3311 9186 - 87","Fax":"---","LongLat":"20.955835,105.7563658","ProvinceID":"32","DistrictID":"4","Address":"398 Ph\u1ed1 Quang Trung, P. La Kh\u00ea, Q. H\u00e0 \u0110\u00f4ng","BankName":"Southern Bank","BankLogo":"\/images\/bank\/southernbank.jpg"},{"ID":"3637","Name":"PH\u00d2NG GIAO D\u1ecaCH TH\u0102NG LONG","Phone":"(04) 3 557 1966","Fax":"---","LongLat":"20.9911474,105.8025623","ProvinceID":"32","DistrictID":"24","Address":"129K Nguy\u1ec5n Tr\u00e3i, Thanh Xu\u00e2n","BankName":"Southern Bank","BankLogo":"\/images\/bank\/southernbank.jpg"},{"ID":"3639","Name":"PH\u00d2NG GIAO D\u1ecaCH HAI B\u00c0 TR\u01afNG","Phone":"(04) 3 632 0106","Fax":"---","LongLat":"21.027241,105.842926","ProvinceID":"32","DistrictID":"6","Address":"302 Minh Khai, Q. Hai B\u00e0 Tr\u01b0ng","BankName":"Southern Bank","BankLogo":"\/images\/bank\/southernbank.jpg"},{"ID":"3642","Name":"QU\u1ef8 TI\u1ebeT KI\u1ec6M B\u1ea0CH MAI","Phone":"(04) 3622 8834","Fax":"---","LongLat":"21.005403,105.851174","ProvinceID":"32","DistrictID":"5","Address":"145 Ph\u1ed1 B\u1ea1ch Mai, P. C\u1ea7u D\u1ec1n, Q. Hai B\u00e0 Tr\u01b0ng","BankName":"Southern Bank","BankLogo":"\/images\/bank\/southernbank.jpg"},{"ID":"3643","Name":"QU\u1ef8 TI\u1ebeT KI\u1ec6M HO\u00c0NG \u0110\u1ea0O TH\u00daY","Phone":"(04) 3556 0186 - 87","Fax":"---","LongLat":"21.008345,105.80262","ProvinceID":"32","DistrictID":"2","Address":"L\u00f4 CC Khu \u0110\u00f4 th\u1ecb Trung H\u00f2a Nh\u00e2n Ch\u00ednh, P. Nh\u00e2n Ch\u00ednh, Q. Thanh Xu\u00e2n","BankName":"Southern Bank","BankLogo":"\/images\/bank\/southernbank.jpg"},{"ID":"3644","Name":"CHI NH\u00c1NH \u0110\u1ed0NG \u0110A","Phone":"(04) 3 574 5983","Fax":"---","LongLat":"21.005714,105.830904","ProvinceID":"32","DistrictID":"3","Address":"4 T\u00f4n Th\u1ea5t T\u00f9ng, P. Trung T\u1ef1, Q. \u0110\u1ed1ng \u0110a","BankName":"Southern Bank","BankLogo":"\/images\/bank\/southernbank.jpg"},{"ID":"3646","Name":"PH\u00d2NG GIAO D\u1ecaCH NG\u00d4 TH\u00cc NH\u1eacM","Phone":"(04) 3662 8965","Fax":"---","LongLat":"21.01605,105.852968","ProvinceID":"32","DistrictID":"5","Address":"44 Ng\u00f4 Th\u00ec Nh\u1eadm, P. Ng\u00f4 Th\u00ec Nh\u1eadm, Q. Hai B\u00e0 Tr\u01b0ng","BankName":"Southern Bank","BankLogo":"\/images\/bank\/southernbank.jpg"},{"ID":"3648","Name":"PH\u00d2NG GIAO D\u1ecaCH M\u1ef8 \u0110\u00ccNH","Phone":"(04) 3787 7521","Fax":"---","LongLat":"21.032531,105.765405","ProvinceID":"32","DistrictID":"42","Address":"S\u1ed1 104, TT3, K\u0110T M\u1ef9 \u0110\u00ecnh, M\u1ec5 Tr\u00ec, X\u00e3 M\u1ef9 \u0110\u00ecnh, Huy\u1ec7n T\u1eeb Li\u00eam","BankName":"Southern Bank","BankLogo":"\/images\/bank\/southernbank.jpg"},{"ID":"3649","Name":"CHI NH\u00c1NH GI\u1ea2NG V\u00d5","Phone":"(04) 3 512 0411","Fax":"---","LongLat":"21.025914,105.822938","ProvinceID":"32","DistrictID":"3","Address":"205 Gi\u1ea3ng V\u00f5, P. C\u00e1t Linh, Q. \u0110\u1ed1ng \u0110a","BankName":"Southern Bank","BankLogo":"\/images\/bank\/southernbank.jpg"},{"ID":"3650","Name":"PH\u00d2NG GIAO D\u1ecaCH HO\u00c0N KI\u1ebeM","Phone":"(04) 3 942 4175","Fax":"---","LongLat":"21.028238,105.841585","ProvinceID":"32","DistrictID":"6","Address":"37 L\u00ea Du\u1ea9n, P. C\u1eeda Nam Q. Ho\u00e0n Ki\u1ebfm","BankName":"Southern Bank","BankLogo":"\/images\/bank\/southernbank.jpg"},{"ID":"3653","Name":"CHI NH\u00c1NH H\u00c0 N\u1ed8I","Phone":"(04) 3 936 5201","Fax":"---","LongLat":"21.023363,105.852839","ProvinceID":"32","DistrictID":"6","Address":"27 Ph\u1ed1 H\u00e0ng B\u00e0i, P. H\u00e0ng B\u00e0i, Q. Ho\u00e0n Ki\u1ebfm","BankName":"Southern Bank","BankLogo":"\/images\/bank\/southernbank.jpg"},{"ID":"3655","Name":"PH\u00d2NG GIAO D\u1ecaCH H\u00c0NG M\u00c3","Phone":"(04) 3923 4170 - 71","Fax":"---","LongLat":"21.036707,105.847668","ProvinceID":"32","DistrictID":"6","Address":"53 Ph\u1ed1 H\u00e0ng M\u00e3, P. H\u00e0ng M\u00e3, Q. Ho\u00e0n Ki\u1ebfm","BankName":"Southern Bank","BankLogo":"\/images\/bank\/southernbank.jpg"},{"ID":"3658","Name":"PH\u00d2NG GIAO D\u1ecaCH H\u00c0 TH\u00c0NH","Phone":"(04) 3 923 3335","Fax":"---","LongLat":"21.033836,105.848153","ProvinceID":"32","DistrictID":"6","Address":"88 Ph\u1ed1 H\u00e0ng B\u1ed3, P. H\u00e0ng B\u1ed3, Q. Ho\u00e0n Ki\u1ebfm","BankName":"Southern Bank","BankLogo":"\/images\/bank\/southernbank.jpg"},{"ID":"3659","Name":"PH\u00d2NG GIAO D\u1ecaCH C\u1ea6U GI\u1ea4Y","Phone":"(04) 3 767 0148","Fax":"---","LongLat":"21.034249,105.796148","ProvinceID":"32","DistrictID":"2","Address":"260 C\u1ea7u Gi\u1ea5y, P. Quan Hoa, Q. C\u1ea7u Gi\u1ea5y","BankName":"Southern Bank","BankLogo":"\/images\/bank\/southernbank.jpg"},{"ID":"3660","Name":"PH\u00d2NG GIAO D\u1ecaCH C\u1eecA B\u1eaeC","Phone":"(04) 3927 5759 - 61","Fax":"---","LongLat":"21.043907,105.843022","ProvinceID":"32","DistrictID":"1","Address":"31 Ph\u1ed1 C\u1eeda B\u1eafc, P. Tr\u00fac B\u1ea1ch, Q. Ba \u0110\u00ecnh","BankName":"Southern Bank","BankLogo":"\/images\/bank\/southernbank.jpg"},{"ID":"3663","Name":"QU\u1ef8 TI\u1ebeT KI\u1ec6M BA \u0110\u00ccNH","Phone":"(04) 3724 6588","Fax":"---","LongLat":"21.0405188,105.8055765","ProvinceID":"32","DistrictID":"2","Address":"469 Ph\u1ed1 Kim M\u00e3, P. Ng\u1ecdc Kh\u00e1nh, Q. Ba \u0110\u00ecnh","BankName":"Southern Bank","BankLogo":"\/images\/bank\/southernbank.jpg"},{"ID":"3666","Name":"QU\u1ef8 TI\u1ebeT KI\u1ec6M L\u1ea0C LONG QU\u00c2N","Phone":"(04) 3759 2741 - 42","Fax":"---","LongLat":"21.0516525,105.8084912","ProvinceID":"32","DistrictID":"2","Address":"A1 - 235 L\u1ea1c Long Qu\u00e2n, P. Ngh\u0129a \u0110\u00f4, Q. C\u1ea7u Gi\u1ea5y","BankName":"Southern Bank","BankLogo":"\/images\/bank\/southernbank.jpg"},{"ID":"3668","Name":"PH\u00d2NG GIAO D\u1ecaCH T\u00c2Y H\u1ed2 T\u00c2Y","Phone":"(04) 3939 3115","Fax":"---","LongLat":"21.061644,105.808357","ProvinceID":"32","DistrictID":"23","Address":"04 Ng\u00f5 28 Ph\u1ed1 Xu\u00e2n La, P. Xu\u00e2n La, Q. T\u00e2y H\u1ed3","BankName":"Southern Bank","BankLogo":"\/images\/bank\/southernbank.jpg"},{"ID":"3688","Name":"CHI NH\u00c1NH THANH XU\u00c2N","Phone":"(04) 3 557 1955","Fax":"---","LongLat":"21.014991,105.801298","ProvinceID":"32","DistrictID":"2","Address":"S\u1ed1 06, L\u00f4 13B, \u0110\u01b0\u1eddng Trung H\u00f2a, Q. C\u1ea7u Gi\u1ea5y","BankName":"Southern Bank","BankLogo":"\/images\/bank\/southernbank.jpg"}]