[{"ID":"60","Name":"CN Kh\u00e1nh H\u00f2a","Phone":"(0258) 3563560","Fax":"(0258) 3563561","LongLat":"12.2490532,109.1834485","ProvinceID":"63","DistrictID":"354","Address":"22 Tha\u0301i Nguy\u00ean, Ph\u01b0\u01a1\u0300ng Ph\u01b0\u01a1ng Sa\u0300i, TP.Nha Trang, Ti\u0309nh Kha\u0301nh Hoa\u0300","BankName":"ABBank","BankLogo":"\/uploads\/2017\/04\/21\/thebank_abbank_logo_cochu_text01_1492768222.png"},{"ID":"118","Name":"PGD Ba M\u01b0\u01a1i Th\u00e1ng T\u01b0","Phone":"(0254) 3628079","Fax":"(0254) 3628078","LongLat":"10.3881889,107.1047104","ProvinceID":"38","DistrictID":"127","Address":"S\u1ed1 02 \u0111\u01b0\u1eddng Nguy\u1ec5n H\u1eefu C\u1ea3nh, P. Th\u1eafng Nh\u1ea5t, Tp. V\u0169ng T\u00e0u, T\u1ec9nh B\u00e0 R\u1ecba, V\u0169ng T\u00e0u","BankName":"ABBank","BankLogo":"\/uploads\/2017\/04\/21\/thebank_abbank_logo_cochu_text01_1492768222.png"},{"ID":"125","Name":"PGD Ph\u00fa M\u1ef9 H\u01b0ng","Phone":"(028) 54121944","Fax":"(028) 54121947","LongLat":"10.7280641,106.7073762","ProvinceID":"33","DistrictID":"69","Address":"1441 M\u1ef9 To\u00e0n 2, Nguy\u1ec5n V\u0103n Linh, P. T\u00e2n Phong, Qu\u1eadn 7, Tp. H\u1ed3 Ch\u00ed Minh.","BankName":"ABBank","BankLogo":"\/uploads\/2017\/04\/21\/thebank_abbank_logo_cochu_text01_1492768222.png"},{"ID":"142","Name":"PGD B\u00ecnh T\u00e2n","Phone":"(028) 37522052","Fax":"(028) 37522052","LongLat":"10.7389109,106.6154172","ProvinceID":"33","DistrictID":"72","Address":"472 Kinh D\u01b0\u01a1ng V\u01b0\u01a1ng, Q. B\u00ecnh T\u00e2n , Tp. H\u1ed3 Ch\u00ed Minh","BankName":"ABBank","BankLogo":"\/uploads\/2017\/04\/21\/thebank_abbank_logo_cochu_text01_1492768222.png"},{"ID":"149","Name":"PGD \u0110\u00f4ng Ba","Phone":"(0234) 3599333","Fax":"(0234) 3588333","LongLat":"16.472208,107.5876455","ProvinceID":"88","DistrictID":"631","Address":"209 Tr\u00e2\u0300n H\u01b0ng \u0110a\u0323o, Ph\u01b0\u1eddng Phu\u0301 Hoa\u0300, Ti\u0309nh Th\u01b0\u0300a Thi\u00ean Hu\u00ea\u0301","BankName":"ABBank","BankLogo":"\/uploads\/2017\/04\/21\/thebank_abbank_logo_cochu_text01_1492768222.png"},{"ID":"211","Name":"PGD Ph\u00f3 C\u01a1 \u0110i\u1ec1u","Phone":"(028) 39561158","Fax":"(028) 39561159","LongLat":"10.7607139,106.6543154","ProvinceID":"33","DistrictID":"51","Address":"1147-1149-1151 \u0110\u01b0\u1eddng 3\/2, Ph\u01b0\u1eddng 6, Qu\u1eadn 11, TP. H\u1ed3 Ch\u00ed Minh","BankName":"ABBank","BankLogo":"\/uploads\/2017\/04\/21\/thebank_abbank_logo_cochu_text01_1492768222.png"},{"ID":"219","Name":"CN Th\u1eeba Thi\u00ean Hu\u1ebf","Phone":"(0234) 2220999","Fax":"(0234) 2220990","LongLat":"10.751963,106.656518","ProvinceID":"88","DistrictID":"631","Address":"26 H\u00e0 N\u1ed9i, Ph\u01b0\u1eddng Ph\u00fa Nhu\u1eadn, Th\u00e0nh ph\u1ed1 Hu\u1ebf, T\u1ec9nh Th\u1eeba Thi\u00ean Hu\u1ebf","BankName":"ABBank","BankLogo":"\/uploads\/2017\/04\/21\/thebank_abbank_logo_cochu_text01_1492768222.png"},{"ID":"230","Name":"PGD Ph\u01b0\u1edbc T\u1ec9nh","Phone":"(0254) 3676699","Fax":"(0254) 3676688","LongLat":"10.769428,106.652534","ProvinceID":"38","DistrictID":"124","Address":"S\u1ed1 nh\u00e0 73, t\u1ed5 4, L\u00f2 V\u00f4i, X\u00e3 Ph\u01b0\u1edbc H\u01b0ng, Huy\u1ec7n Long \u0110i\u1ec1n, T\u1ec9nh B\u00e0 R\u1ecba-V\u0169ng T\u00e0u","BankName":"ABBank","BankLogo":"\/uploads\/2017\/04\/21\/thebank_abbank_logo_cochu_text01_1492768222.png"},{"ID":"273","Name":"PGD H\u1eadu Giang","Phone":"(028) 39603141","Fax":"(028) 39603184","LongLat":"10.7497333,106.6420839","ProvinceID":"33","DistrictID":"52","Address":"243 H\u1eadu Giang, Ph\u01b0\u1eddng 5, Qu\u1eadn 6, Tp. H\u1ed3 Ch\u00ed Minh","BankName":"ABBank","BankLogo":"\/uploads\/2017\/04\/21\/thebank_abbank_logo_cochu_text01_1492768222.png"},{"ID":"397","Name":"CN S\u00e0i G\u00f2n","Phone":"(028) 39240500","Fax":"(028) 39240503","LongLat":"10.7550117,106.6801268","ProvinceID":"33","DistrictID":"67","Address":"855 Tr\u1ea7n H\u01b0ng \u0110\u1ea1o, Ph\u01b0\u1eddng 1, Qu\u1eadn 5, Tp.H\u1ed3 Ch\u00ed Minh.","BankName":"ABBank","BankLogo":"\/uploads\/2017\/04\/21\/thebank_abbank_logo_cochu_text01_1492768222.png"},{"ID":"509","Name":"PGD Kh\u00e1nh H\u1ed9i","Phone":"(028) 39430530 ","Fax":"(028) 39430528","LongLat":"10.7583324,106.6995468","ProvinceID":"33","DistrictID":"66","Address":"184 \u2013 186 Kh\u00e1nh H\u1ed9i, Ph\u01b0\u1eddng 6, Qu\u1eadn 4, TP. H\u1ed3 Ch\u00ed Minh","BankName":"ABBank","BankLogo":"\/uploads\/2017\/04\/21\/thebank_abbank_logo_cochu_text01_1492768222.png"},{"ID":"521","Name":"PGD Ch\u1ee3 L\u1edbn","Phone":"(028) 38300540","Fax":"(028) 38300541","LongLat":"10.7565633,106.6483922","ProvinceID":"33","DistrictID":"50","Address":"110 Nguy\u1ec5n Ch\u00ed Thanh, Qu\u1eadn 10, TP.HCM","BankName":"ABBank","BankLogo":"\/uploads\/2017\/04\/21\/thebank_abbank_logo_cochu_text01_1492768222.png"},{"ID":"568","Name":"PGD Ph\u00fa B\u00e0i","Phone":"(0234) 3999789 ","Fax":"(0234) 3999399","LongLat":"16.4079485,107.6796969","ProvinceID":"88","DistrictID":"632","Address":"S\u1ed1 1006 Nguy\u1ec5n T\u1ea5t Th\u00e0nh, T\u1ed5 11, Ph\u01b0\u1eddng Ph\u00fa B\u00e0i, Th\u1ecb x\u00e3 H\u01b0\u01a1ng Th\u1ee7y, T\u1ec9nh Th\u1eeba Thi\u00ean Hu\u1ebf","BankName":"ABBank","BankLogo":"\/uploads\/2017\/04\/21\/thebank_abbank_logo_cochu_text01_1492768222.png"},{"ID":"610","Name":"CN H\u01b0ng Y\u00ean","Phone":"(0221) 3742668","Fax":"(0221) 3742005","LongLat":"20.9385721,106.0422458","ProvinceID":"62","DistrictID":"691","Address":"Trung t\u00e2m v\u0103n h\u00f3a th\u1ec3 thao Gia Phong, ng\u00e3 t\u01b0 th\u1ecb tr\u1ea5n B\u1ea7n Y\u00ean Nh\u00e2n, huy\u1ec7n M\u1ef9 H\u00e0o, t\u1ec9nh H\u01b0ng Y\u00ean","BankName":"ABBank","BankLogo":"\/uploads\/2017\/04\/21\/thebank_abbank_logo_cochu_text01_1492768222.png"},{"ID":"731","Name":"PGD Ph\u1ed1 Hi\u1ebfn","Phone":"(0221) 3515999","Fax":"(0221) 3518555","LongLat":"10.770727,106.7025769","ProvinceID":"62","DistrictID":"707","Address":"S\u1ed1 6 Nguy\u1ec5n Thi\u1ec7n Thu\u1eadt, Th\u00e0nh ph\u1ed1 H\u01b0ng Y\u00ean, T\u1ec9nh H\u01b0ng Y\u00ean","BankName":"ABBank","BankLogo":"\/uploads\/2017\/04\/21\/thebank_abbank_logo_cochu_text01_1492768222.png"},{"ID":"746","Name":"PGD Kho\u00e1i Ch\u00e2u","Phone":"(0221) 3922999 ","Fax":"(0221) 3713466","LongLat":"20.8431388,106.0096511","ProvinceID":"62","DistrictID":"689","Address":"Th\u00f4n Y\u00ean L\u1ecbch, X\u00e3 D\u00e2n Ti\u1ebfn, Huy\u1ec7n Kho\u00e1i Ch\u00e2u, T\u1ec9nh H\u01b0ng Y\u00ean","BankName":"ABBank","BankLogo":"\/uploads\/2017\/04\/21\/thebank_abbank_logo_cochu_text01_1492768222.png"},{"ID":"760","Name":"PGD L\u0169y B\u00e1n B\u00edch","Phone":"(028) 39761357","Fax":"(028) 39761357","LongLat":"10.7714965,106.631959","ProvinceID":"33","DistrictID":"77","Address":"283 L\u0169y B\u00e1n B\u00edch, P. Hi\u1ec7p T\u00e2n, Qu\u1eadn T\u00e2n Ph\u00fa, Tp.HCM","BankName":"ABBank","BankLogo":"\/uploads\/2017\/04\/21\/thebank_abbank_logo_cochu_text01_1492768222.png"},{"ID":"766","Name":"PGD \u00d4 M\u00f4n","Phone":"(0292) 3664790","Fax":"(0292) 3664791","LongLat":"10.1109331,105.6512904","ProvinceID":"34","DistrictID":"86","Address":"03 QL 91, KV 4, Ph\u01b0\u1eddng Ch\u00e2u V\u0103n Li\u00eam, Qu\u1eadn \u00d4 M\u00f4n, TP. C\u1ea7n Th\u01a1","BankName":"ABBank","BankLogo":"\/uploads\/2017\/04\/21\/thebank_abbank_logo_cochu_text01_1492768222.png"},{"ID":"811","Name":"PGD K\u1ef3 H\u00f2a","Phone":"(028) 39292747","Fax":"(028) 39292748","LongLat":"10.7740629,106.678319","ProvinceID":"33","DistrictID":"50","Address":"T\u1ea7ng tr\u1ec7t, t\u00f2a nh\u00e0 Khu c\u00f4ng ngh\u1ec7 Th\u00e1i S\u01a1n, s\u1ed1 03 \u0111\u01b0\u1eddng 3\/2, Ph\u01b0\u1eddng 11, Qu\u1eadn 10, TP.HCM","BankName":"ABBank","BankLogo":"\/uploads\/2017\/04\/21\/thebank_abbank_logo_cochu_text01_1492768222.png"},{"ID":"877","Name":"PGD V\u0103n L\u00e2m","Phone":"(0221) 3993888","Fax":"(0221) 3992889","LongLat":"10.777941,106.665599","ProvinceID":"62","DistrictID":"695","Address":"Th\u00f4n Nh\u1ea1c L\u1ed9c, X\u00e3 Tr\u01b0ng Tr\u1eafc, Huy\u1ec7n V\u0103n L\u00e2m, T\u1ec9nh H\u01b0ng Y\u00ean","BankName":"ABBank","BankLogo":"\/uploads\/2017\/04\/21\/thebank_abbank_logo_cochu_text01_1492768222.png"},{"ID":"889","Name":"PGD Minh Khai","Phone":"(028) 39330320","Fax":"(028) 39330322","LongLat":"10.7779039,106.6929868","ProvinceID":"33","DistrictID":"65","Address":"126 Nguy\u1ec5n Th\u1ecb Minh Khai, Ph\u01b0\u1eddng 6, Qu\u1eadn 3, Tp. H\u1ed3 Ch\u00ed Minh","BankName":"ABBank","BankLogo":"\/uploads\/2017\/04\/21\/thebank_abbank_logo_cochu_text01_1492768222.png"},{"ID":"890","Name":"PGD T\u00e2n Thu\u1eadn","Phone":"(028) 37716933","Fax":"(028) 37716939","LongLat":"10.7785896,106.7636668","ProvinceID":"33","DistrictID":"69","Address":"S\u1ed1 350 Nguy\u1ec5n Th\u1ecb Th\u1eadp, Ph\u01b0\u1eddng T\u00e2n Quy, Qu\u1eadn 7, TP H\u1ed3 Ch\u00ed Minh","BankName":"ABBank","BankLogo":"\/uploads\/2017\/04\/21\/thebank_abbank_logo_cochu_text01_1492768222.png"},{"ID":"954","Name":"CN \u0110\u00e0 N\u1eb5ng","Phone":"0236) 2225262","Fax":"(0236) 2225265","LongLat":"16.0696922,108.2113218","ProvinceID":"35","DistrictID":"95","Address":"S\u1ed1 255, \u0111\u01b0\u1eddng L\u00ea Du\u1ea9n, Ph\u01b0\u1eddng T\u00e2n Ch\u00ednh, Qu\u1eadn Thanh Kh\u00ea, TP. \u0110\u00e0 N\u1eb5ng","BankName":"ABBank","BankLogo":"\/uploads\/2017\/04\/21\/thebank_abbank_logo_cochu_text01_1492768222.png"},{"ID":"960","Name":"PGD B\u00e0 R\u1ecba","Phone":"(0254) 3717601","Fax":"(0254) 3717600","LongLat":"10.7831269,106.6717207","ProvinceID":"38","DistrictID":"128","Address":" S\u1ed1 257 C\u00e1ch M\u1ea1ng Th\u00e1ng T\u00e1m, Ph\u01b0\u1eddng Ph\u01b0\u1edbc Hi\u1ec7p, TP. B\u00e0 R\u1ecba, T\u1ec9nh B\u00e0 R\u1ecba-V\u0169ng T\u00e0u","BankName":"ABBank","BankLogo":"\/uploads\/2017\/04\/21\/thebank_abbank_logo_cochu_text01_1492768222.png"},{"ID":"980","Name":"PGD \u0110\u00f4ng B\u1ebfn Th\u00e0nh","Phone":"(028) 37423590","Fax":"(028) 37423591","LongLat":"10.783585,106.704041","ProvinceID":"33","DistrictID":"64","Address":"172 Tr\u1ea7n N\u00e3o, Ph\u01b0\u1eddng B\u00ecnh An, Qu\u1eadn 2, TP. H\u1ed3 Ch\u00ed Minh","BankName":"ABBank","BankLogo":"\/uploads\/2017\/04\/21\/thebank_abbank_logo_cochu_text01_1492768222.png"},{"ID":"995","Name":"Chi nh\u00e1nh TP. H\u1ed3 Ch\u00ed Minh","Phone":"(028) 38244855","Fax":"(028) 38223343","LongLat":"10.7853243,106.6951847","ProvinceID":"33","DistrictID":"49","Address":"170 Hai B\u00e0 Tr\u01b0ng, Ph\u01b0\u1eddng \u0110a Kao, Qu\u1eadn 1, TP H\u1ed3 Ch\u00ed Minh","BankName":"ABBank","BankLogo":"\/uploads\/2017\/04\/21\/thebank_abbank_logo_cochu_text01_1492768222.png"},{"ID":"1013","Name":"PGD H\u00f9ng V\u01b0\u01a1ng","Phone":"(0236) 2225699","Fax":"(0236) 2225696","LongLat":"16.0676091,108.2157601","ProvinceID":"35","DistrictID":"91","Address":"195 H\u00f9ng V\u01b0\u01a1ng, Qu\u1eadn H\u1ea3i Ch\u00e2u, TP. \u0110\u00e0 N\u1eb5ng","BankName":"ABBank","BankLogo":"\/uploads\/2017\/04\/21\/thebank_abbank_logo_cochu_text01_1492768222.png"},{"ID":"1066","Name":"PGD B\u00ecnh Th\u1edbi","Phone":"(028) 39622639","Fax":"(028) 39622628","LongLat":"10.7887707,106.6632020","ProvinceID":"33","DistrictID":"51","Address":"85A B\u00ecnh Th\u1edbi, Ph\u01b0\u1eddng 11, Qu\u1eadn 11, TP.HCM","BankName":"ABBank","BankLogo":"\/uploads\/2017\/04\/21\/thebank_abbank_logo_cochu_text01_1492768222.png"},{"ID":"1081","Name":"CN Ki\u00ean Giang","Phone":"(0297) 3942828","Fax":"(0297) 3942827","LongLat":"10.0156584,105.0813854","ProvinceID":"64","DistrictID":"369","Address":"40 Tr\u00e2\u0300n Phu\u0301, Ph\u01b0\u1eddng Vi\u0303nh Thanh, TP. Ra\u0323ch Gia\u0301, Ki\u00ean Giang","BankName":"ABBank","BankLogo":"\/uploads\/2017\/04\/21\/thebank_abbank_logo_cochu_text01_1492768222.png"},{"ID":"1103","Name":"PGD \u0110aKao","Phone":"(028) 39100780","Fax":"(028) 39100786","LongLat":"10.7910741,106.6983107","ProvinceID":"33","DistrictID":"49","Address":"47 \u0110i\u1ec7n Bi\u00ean Ph\u1ee7, Qu\u1eadn 1, Tp. H\u1ed3 Ch\u00ed Minh.","BankName":"ABBank","BankLogo":"\/uploads\/2017\/04\/21\/thebank_abbank_logo_cochu_text01_1492768222.png"},{"ID":"1119","Name":"PGD T\u00f4 Hi\u1ebfn Th\u00e0nh","Phone":"(028) 39797252","Fax":"(028) 39797253","LongLat":"10.7772212,106.6650871","ProvinceID":"33","DistrictID":"50","Address":"287 T\u00f4 Hi\u00ea\u0301n Tha\u0300nh, Ph\u01b0\u1eddng 13, Qu\u1eadn 10, TP. H\u1ed3 Ch\u00ed Minh","BankName":"ABBank","BankLogo":"\/uploads\/2017\/04\/21\/thebank_abbank_logo_cochu_text01_1492768222.png"},{"ID":"1150","Name":"PGD T\u00e2n Ph\u00fa","Phone":"(028) 39787932","Fax":"(028) 38123404","LongLat":"10.784051,106.62332","ProvinceID":"33","DistrictID":"77","Address":"328B Nguy\u1ec5n S\u01a1n, Ph\u01b0\u1eddng Ph\u00fa Th\u1ecd H\u00f2a, Qu\u1eadn T\u00e2n Ph\u00fa, H\u1ed3 Ch\u00ed Minh","BankName":"ABBank","BankLogo":"\/uploads\/2017\/04\/21\/thebank_abbank_logo_cochu_text01_1492768222.png"},{"ID":"1222","Name":"PGD Nguy\u1ec5n V\u0103n Tr\u00f4\u0303i","Phone":"( 028) 38111650 ","Fax":"(028) 38111644","LongLat":"10.7978975,106.6713345","ProvinceID":"33","DistrictID":"76","Address":"428-430-432 Ho\u00e0ng V\u0103n Th\u1ee5, Ph\u01b0\u1eddng 4, Qu\u1eadn T\u00e2n B\u00ecnh, TP.H\u1ed3 Ch\u00ed Minh","BankName":"ABBank","BankLogo":"\/uploads\/2017\/04\/21\/thebank_abbank_logo_cochu_text01_1492768222.png"},{"ID":"1269","Name":"PGD Nguy\u1ec5n V\u0103n Linh","Phone":"(0236) 2221222","Fax":"(0236) 222123","LongLat":"16.0596473,108.2093546","ProvinceID":"35","DistrictID":"95","Address":"167 Nguy\u1ec5n V\u0103n Linh, Ph\u01b0\u1eddng Th\u1ea1c Gi\u00e1n, Qu\u1eadn Thanh Kh\u00ea, TP. \u0110\u00e0 N\u1eb5ng","BankName":"ABBank","BankLogo":"\/uploads\/2017\/04\/21\/thebank_abbank_logo_cochu_text01_1492768222.png"},{"ID":"1300","Name":"PGD Tr\u01b0\u1eddng Chinh","Phone":"(028) 38428696","Fax":"(028) 38428797","LongLat":"10.8079305,106.6346496","ProvinceID":"33","DistrictID":"76","Address":"499 Tr\u01b0\u01a1\u0300ng Chinh, P.14, Q.T\u00e2n Bi\u0300nh, TP.HCM","BankName":"ABBank","BankLogo":"\/uploads\/2017\/04\/21\/thebank_abbank_logo_cochu_text01_1492768222.png"},{"ID":"1309","Name":"PGD B\u00e0n C\u1edd","Phone":"(028) 39290345","Fax":"(028) 39290335","LongLat":"10.7724883,106.6844472","ProvinceID":"33","DistrictID":"65","Address":"M\u1ed9t ph\u1ea7n c\u0103n nh\u00e0 s\u1ed1 532-534 \u0111\u01b0\u1eddng Nguy\u1ec5n \u0110\u00ecnh Chi\u1ec3u, Ph\u01b0\u1eddng 4, Qu\u1eadn 3, TP.HCM","BankName":"ABBank","BankLogo":"\/uploads\/2017\/04\/21\/thebank_abbank_logo_cochu_text01_1492768222.png"},{"ID":"1326","Name":"PGD C\u1ed9ng H\u00f2a","Phone":"(028) 38117077","Fax":"(028) 38117020","LongLat":"10.8016967,106.6599941","ProvinceID":"33","DistrictID":"76","Address":"78 C\u1ed9ng Ho\u00e0, Ph\u01b0\u1eddng 4, Qu\u1eadn T\u00e2n B\u00ecnh, Tp. H\u1ed3 Ch\u00ed Minh","BankName":"ABBank","BankLogo":"\/uploads\/2017\/04\/21\/thebank_abbank_logo_cochu_text01_1492768222.png"},{"ID":"1355","Name":"CN \u0110i\u1ec7n Bi\u00ean","Phone":"(0215) 3833333","Fax":"(0215) 3835959","LongLat":"21.3949351,103.0183429","ProvinceID":"52","DistrictID":"248","Address":"T\u1ed5 d\u00e2n ph\u1ed1 09, \u0111\u01b0\u1eddng V\u00f5 Nguy\u00ean Gi\u00e1p, Ph\u01b0\u1eddng T\u00e2n Thanh, Th\u00e0nh ph\u1ed1 \u0110i\u1ec7n Bi\u00ean Ph\u1ee7, T\u1ec9nh \u0110i\u1ec7n Bi\u00ean","BankName":"ABBank","BankLogo":"\/uploads\/2017\/04\/21\/thebank_abbank_logo_cochu_text01_1492768222.png"},{"ID":"1450","Name":"PGD Tao \u0110\u00e0n","Phone":"(028) 38323720","Fax":"(028) 38323721","LongLat":"10.767876,106.6864514","ProvinceID":"33","DistrictID":"49","Address":"168 B\u00f9i Th\u1ecb Xu\u00e2n, Ph\u01b0\u1eddng Ph\u1ea1m Ng\u0169 L\u00e3o, Qu\u1eadn 1, TP.HCM","BankName":"ABBank","BankLogo":"\/uploads\/2017\/04\/21\/thebank_abbank_logo_cochu_text01_1492768222.png"},{"ID":"1532","Name":"PGD Quang Trung","Phone":"(028) 39975766","Fax":"(028) 38443701","LongLat":"10.799991,106.681421","ProvinceID":"33","DistrictID":"75","Address":"187 - 189 Phan \u0110\u0103ng L\u01b0u, Ph\u01b0\u1eddng 1, Qu\u1eadn Ph\u00fa Nhu\u1eadn, TP.H\u1ed3 Ch\u00ed Minh","BankName":"ABBank","BankLogo":"\/uploads\/2017\/04\/21\/thebank_abbank_logo_cochu_text01_1492768222.png"},{"ID":"1591","Name":"PGD Trung t\u00e2m SME","Phone":"(028) 22262222","Fax":"(028) 22205301","LongLat":"10.7837579,106.704098","ProvinceID":"33","DistrictID":"49","Address":"T\u1ea7ng tr\u1ec7t, T\u00f2a nh\u00e0 Green Power, s\u1ed1 35 T\u00f4n \u0110\u1ee9c Th\u1eafng, Ph\u01b0\u1eddng B\u1ebfn Ngh\u00e9, Qu\u1eadn 1, TP. H\u1ed3 Ch\u00ed Minh","BankName":"ABBank","BankLogo":"\/uploads\/2017\/04\/21\/thebank_abbank_logo_cochu_text01_1492768222.png"},{"ID":"1603","Name":"PGD L\u00ea V\u0103n Vi\u1ec7t","Phone":"(028) 37360630","Fax":"(028) 37360629","LongLat":"10.8440226,106.7835688","ProvinceID":"33","DistrictID":"71","Address":"77 L\u00ea V\u0103n Vi\u1ec7t, Ph\u01b0\u1eddng Hi\u1ec7p Ph\u00fa, Qu\u1eadn 9, TP. H\u1ed3 Ch\u00ed Minh","BankName":"ABBank","BankLogo":"\/uploads\/2017\/04\/21\/thebank_abbank_logo_cochu_text01_1492768222.png"},{"ID":"1641","Name":"PGD D\u00e2n Ch\u1ee7","Phone":"(028) 37225412","Fax":"(028) 37225417","LongLat":"10.8483345,106.7720883","ProvinceID":"33","DistrictID":"78","Address":"115 D\u00e2n Ch\u1ee7, P.B\u00ecnh Th\u1ecd, Q.Th\u1ee7 \u0110\u1ee9c, Tp.H\u1ed3 Ch\u00ed Minh.","BankName":"ABBank","BankLogo":"\/uploads\/2017\/04\/21\/thebank_abbank_logo_cochu_text01_1492768222.png"},{"ID":"1675","Name":"PGD Trung Ch\u00e1nh","Phone":"(028) 37186145","Fax":"(028) 37186148","LongLat":"10.8572465,106.6085064","ProvinceID":"33","DistrictID":"52","Address":"356A Nguy\u00ea\u0303n A\u0309nh Thu\u0309, P Trung My\u0303 T\u00e2y, Qu\u1eadn 12, Tp.H\u1ed3 Ch\u00ed Minh","BankName":"ABBank","BankLogo":"\/uploads\/2017\/04\/21\/thebank_abbank_logo_cochu_text01_1492768222.png"},{"ID":"1720","Name":"PGD M\u1ed9c Ch\u00e2u","Phone":"(0212) 3766926","Fax":"(0212) 3766929","LongLat":"20.8429184,104.6427499","ProvinceID":"83","DistrictID":"563","Address":"688 Ti\u00ea\u0309u Khu 6, Thi\u0323 tr\u00e2\u0301n M\u00f4\u0323c Ch\u00e2u, Huy\u00ea\u0323n M\u00f4\u0323c Ch\u00e2u, Ti\u0309nh S\u01a1n La","BankName":"ABBank","BankLogo":"\/uploads\/2017\/04\/21\/thebank_abbank_logo_cochu_text01_1492768222.png"},{"ID":"1745","Name":"PGD Nguy\u1ec5n Ch\u00ed Thanh","Phone":"(0236) 2222116","Fax":"(0236) 2222117","LongLat":"16.0700093,108.2205771","ProvinceID":"35","DistrictID":"91","Address":"179 Nguy\u1ec5n Ch\u00ed Thanh, Ph\u01b0\u1eddng H\u1ea3i Ch\u00e2u 1, Qu\u1eadn H\u1ea3i Ch\u00e2u, TP. \u0110\u00e0 N\u1eb5ng","BankName":"ABBank","BankLogo":"\/uploads\/2017\/04\/21\/thebank_abbank_logo_cochu_text01_1492768222.png"},{"ID":"1757","Name":"PGD Quy\u1ebft Th\u1eafng","Phone":"(0212) 3755929","Fax":"(0212) 3755925","LongLat":"21.3277804,103.9289005","ProvinceID":"83","DistrictID":"571","Address":"S\u1ed1 98, \u0110\u01b0\u1eddng 3\/2, T\u1ed5 08, Ph\u01b0\u1eddng Quy\u1ebft Th\u1eafng, Th\u00e0nh ph\u1ed1 S\u01a1n La, T\u1ec9nh S\u01a1n La","BankName":"ABBank","BankLogo":"\/uploads\/2017\/04\/21\/thebank_abbank_logo_cochu_text01_1492768222.png"},{"ID":"1884","Name":"PGD Ng\u00f4 Quy\u1ec1n","Phone":"(0225) 3568766","Fax":"(02251) 3568799","LongLat":"20.861083,106.692621","ProvinceID":"36","DistrictID":"109","Address":"S\u1ed1 1 Ph\u1ea1m Minh \u0110\u1ee9c, ph\u01b0\u1eddng M\u00e1y T\u01a1, Qu\u1eadn Ng\u00f4 Quy\u1ec1n, TP. H\u1ea3i Ph\u00f2ng","BankName":"ABBank","BankLogo":"\/uploads\/2017\/04\/21\/thebank_abbank_logo_cochu_text01_1492768222.png"},{"ID":"1897","Name":"PGD L\u1ea1ch Tray","Phone":"(0225) 6263388","Fax":"(0225) 6263366","LongLat":"20.851277,106.682275","ProvinceID":"36","DistrictID":"108","Address":"S\u1ed1 125A T\u00f4 Hi\u1ec7u, Ph\u01b0\u1eddng Tr\u1ea1i Cau, Qu\u1eadn L\u00ea Ch\u00e2n, TP. H\u1ea3i Ph\u00f2ng","BankName":"ABBank","BankLogo":"\/uploads\/2017\/04\/21\/thebank_abbank_logo_cochu_text01_1492768222.png"},{"ID":"1937","Name":"PGD \u0110\u1ea1i Kim","Phone":"(024) 35401044","Fax":"(024) 35401045","LongLat":"20.9737848,105.8353734","ProvinceID":"32","DistrictID":"7","Address":"A5, Khu C8 Khu \u0110\u00f4 th\u1ecb m\u1edbi \u0110\u1ea1i Kim, \u0110\u1ecbnh C\u00f4ng, Ho\u00e0ng Mai, H\u00e0 N\u1ed9i","BankName":"ABBank","BankLogo":"\/uploads\/2017\/04\/21\/thebank_abbank_logo_cochu_text01_1492768222.png"},{"ID":"1972","Name":"PGD Tr\u00e0ng Ti\u1ec1n","Phone":"(024) 3716 5555","Fax":"(024) 3716 3333","LongLat":"21.025014,105.853114","ProvinceID":"32","DistrictID":"6","Address":"S\u1ed1 6 H\u00e0ng B\u00e0i, Ph\u01b0\u1eddng Tr\u00e0ng Ti\u1ec1n, Qu\u1eadn Ho\u00e0n Ki\u1ebfm, H\u00e0 N\u1ed9i","BankName":"ABBank","BankLogo":"\/uploads\/2017\/04\/21\/thebank_abbank_logo_cochu_text01_1492768222.png"},{"ID":"1989","Name":"PGD Tr\u1ea7n Nguy\u00ean H\u00e3n","Phone":"(0225) 3789111","Fax":"(0225) 3789777","LongLat":"20.984561,105.793938","ProvinceID":"36","DistrictID":"108","Address":"263K-263L Tr\u1ea7n Nguy\u00ean H\u00e3n, Qu\u1eadn L\u00ea Ch\u00e2n, Th\u00e0nh Ph\u1ed1 H\u1ea3i Ph\u00f2ng","BankName":"ABBank","BankLogo":"\/uploads\/2017\/04\/21\/thebank_abbank_logo_cochu_text01_1492768222.png"},{"ID":"1990","Name":" CN H\u1ea3i Ph\u00f2ng","Phone":"(0225) 3529 666","Fax":"(0225) 3529664","LongLat":"20.8585065,106.6852652","ProvinceID":"36","DistrictID":"107","Address":"09 Tr\u1ea7n H\u01b0ng \u0110\u1ea1o, Ph\u01b0\u1eddng Ho\u00e0ng V\u0103n Th\u1ee5, Qu\u1eadn H\u1ed3ng B\u00e0ng, Tp. H\u1ea3i Ph\u00f2ng","BankName":"ABBank","BankLogo":"\/uploads\/2017\/04\/21\/thebank_abbank_logo_cochu_text01_1492768222.png"},{"ID":"2050","Name":"PGD Gi\u1ea3i Ph\u00f3ng","Phone":"(024) 62551111","Fax":"(024) 62841307","LongLat":"20.9944601,105.8414864","ProvinceID":"32","DistrictID":"24","Address":"441 Gia\u0309i Pho\u0301ng, Ph\u01b0\u01a1\u0300ng Ph\u01b0\u01a1ng Li\u00ea\u0323t, Qu\u00e2\u0323n Thanh Xu\u00e2n, Ha\u0300 N\u00f4\u0323i","BankName":"ABBank","BankLogo":"\/uploads\/2017\/04\/21\/thebank_abbank_logo_cochu_text01_1492768222.png"},{"ID":"2151","Name":"PGD L\u00ea Tr\u1ecdng T\u1ea5n","Phone":"(024) 35665406","Fax":"(024) 35665406","LongLat":"20.9905195,105.8335106","ProvinceID":"32","DistrictID":"24","Address":"262 L\u00ea Tr\u1ecdng T\u1ea5n, Ph\u01b0\u1eddng Kh\u01b0\u01a1ng Mai, Qu\u1eadn Thanh Xu\u00e2n, TP. H\u00e0 N\u1ed9i","BankName":"ABBank","BankLogo":"\/uploads\/2017\/04\/21\/thebank_abbank_logo_cochu_text01_1492768222.png"},{"ID":"2221","Name":"PGD Nguy\u1ec5n Hu\u1ec7","Phone":" (0234) 2227999","Fax":"(0234) 2227888","LongLat":"16.458119,107.591303","ProvinceID":"88","DistrictID":"631","Address":"100 Nguy\u1ec5n Hu\u1ec7, Ph\u01b0\u1eddng V\u0129nh Ninh, TP. Hu\u1ebf, T\u1ec9nh Th\u1eeba Thi\u00ean Hu\u1ebf","BankName":"ABBank","BankLogo":"\/uploads\/2017\/04\/21\/thebank_abbank_logo_cochu_text01_1492768222.png"},{"ID":"2279","Name":"PGD Tr\u1ea7n Kh\u00e1t Ch\u00e2n","Phone":"(024) 39724814","Fax":"(024) 39724815","LongLat":"21.0092468,105.8575652","ProvinceID":"32","DistrictID":"5","Address":"366 Tr\u1ea7n Kh\u00e1t Ch\u00e2n, Ph\u01b0\u1eddng Thanh Nh\u00e0n, Qu\u1eadn Hai B\u00e0 Tr\u01b0ng, TP. H\u00e0 N\u1ed9i","BankName":"ABBank","BankLogo":"\/uploads\/2017\/04\/21\/thebank_abbank_logo_cochu_text01_1492768222.png"},{"ID":"2351","Name":"PGD V\u0169ng T\u00e0u ","Phone":"(0254) 3515597","Fax":"(0254) 3515596","LongLat":"10.3529433,107.0869925","ProvinceID":"38","DistrictID":"127","Address":"370 \u0110\u01b0\u1eddng L\u00ea H\u1ed3ng Phong, Ph\u01b0\u1eddng 3, Th\u00e0nh Ph\u1ed1 V\u0169ng T\u00e0u, T\u1ec9nh B\u00e0 R\u1ecba - V\u0169ng T\u00e0u","BankName":"ABBank","BankLogo":"\/uploads\/2017\/04\/21\/thebank_abbank_logo_cochu_text01_1492768222.png"},{"ID":"2361","Name":"PGD Lo\u0300 \u0110u\u0301c","Phone":"(024) 39727327","Fax":"(024) 39727328","LongLat":"21.012985,105.858185","ProvinceID":"32","DistrictID":"5","Address":"126 Lo\u0300 \u0110u\u0301c, Ph\u01b0\u1eddng \u0110\u00f4ng Ma\u0301c, Qu\u1eadn Hai Ba\u0300 Tr\u01b0ng, Ha\u0300 N\u00f4\u0323i","BankName":"ABBank","BankLogo":"\/uploads\/2017\/04\/21\/thebank_abbank_logo_cochu_text01_1492768222.png"},{"ID":"2367","Name":"PGD Ho\u00e0ng C\u1ea7u","Phone":"(024) 62595555","Fax":"(024) 62779727","LongLat":"21.0183799,105.8240195","ProvinceID":"32","DistrictID":"3","Address":"36 Hoa\u0300ng C\u00e2\u0300u, Ph\u01b0\u01a1\u0300ng \u00d4 Ch\u01a1\u0323 D\u01b0\u0300a, Qu\u00e2\u0323n \u0110\u00f4\u0301ng \u0110a, Ha\u0300 N\u00f4\u0323i","BankName":"ABBank","BankLogo":"\/uploads\/2017\/04\/21\/thebank_abbank_logo_cochu_text01_1492768222.png"},{"ID":"2377","Name":"PGD Ph\u1ed1 Hu\u1ebf","Phone":"(024) 62525678","Fax":"(024) 62780020","LongLat":"21.014126,105.849934","ProvinceID":"32","DistrictID":"5","Address":"S\u1ed1 129 B\u00f9i Th\u1ecb Xu\u00e2n,Ph\u01b0\u01a1\u0300ng Bu\u0300i Thi\u0323 Xu\u00e2n, Qu\u00e2\u0323n Hai Ba\u0300 Tr\u01b0ng, Ha\u0300 N\u00f4\u0323i","BankName":"ABBank","BankLogo":"\/uploads\/2017\/04\/21\/thebank_abbank_logo_cochu_text01_1492768222.png"},{"ID":"2451","Name":"PGD Ho\u00e0ng Qu\u1ed1c Vi\u1ec7t","Phone":"(024) 62816233","Fax":"(024) 62816235","LongLat":"21.046069,105.794113","ProvinceID":"32","DistrictID":"2","Address":"141 Ho\u00e0ng Qu\u1ed1c Vi\u1ec7t, Ph\u01b0\u1eddng Ngh\u0129a \u0110\u00f4, Qu\u1eadn C\u1ea7u Gi\u1ea5y, H\u00e0 N\u1ed9i","BankName":"ABBank","BankLogo":"\/uploads\/2017\/04\/21\/thebank_abbank_logo_cochu_text01_1492768222.png"},{"ID":"2470","Name":"PGD C\u1eeda Nam","Phone":"(024) 39447150","Fax":"(024) 39447153","LongLat":"21.0277439,105.8419459","ProvinceID":"32","DistrictID":"6","Address":"S\u1ed1 28 C\u1eeda Nam, Ph\u01b0\u1eddng C\u1eeda Nam, Qu\u1eadn Ho\u00e0n Ki\u1ebfm, Th\u00e0nh ph\u1ed1 H\u00e0 N\u1ed9i","BankName":"ABBank","BankLogo":"\/uploads\/2017\/04\/21\/thebank_abbank_logo_cochu_text01_1492768222.png"},{"ID":"2591","Name":"PGD \u0110\u1ed1ng \u0110a","Phone":"(024) 35132190","Fax":"(024) 35132218","LongLat":"21.0175207,105.8288922","ProvinceID":"32","DistrictID":"3","Address":"S\u1ed1 64 Nguy\u1ec5n L\u01b0\u01a1ng B\u1eb1ng, Ph\u01b0\u1eddng Nam \u0110\u1ed3ng, Qu\u1eadn \u0110\u1ed1ng \u0110a, Th\u00e0nh ph\u1ed1 H\u00e0 N\u1ed9i","BankName":"ABBank","BankLogo":"\/uploads\/2017\/04\/21\/thebank_abbank_logo_cochu_text01_1492768222.png"},{"ID":"2730","Name":"PGD H\u1ed3 G\u01b0\u01a1m","Phone":"(024) 39262865","Fax":"(024) 39262870","LongLat":"21.029474,105.853939","ProvinceID":"32","DistrictID":"6","Address":"30 L\u00fd Th\u00e1i T\u1ed5, Ph\u01b0\u1eddng L\u00fd Th\u00e1i T\u1ed5, Qu\u1eadn Ho\u00e0n ki\u1ebfm, TP. H\u00e0 N\u1ed9i","BankName":"ABBank","BankLogo":"\/uploads\/2017\/04\/21\/thebank_abbank_logo_cochu_text01_1492768222.png"},{"ID":"2735","Name":"CN H\u00e0 N\u1ed9i","Phone":"(024) 35622828 ","Fax":"(024) 35624655","LongLat":"21.029657,105.835544","ProvinceID":"32","DistrictID":"3","Address":"101 L\u00e1ng H\u1ea1, Qu\u1eadn \u0110\u1ed1ng \u0110a, H\u00e0 N\u1ed9i","BankName":"ABBank","BankLogo":"\/uploads\/2017\/04\/21\/thebank_abbank_logo_cochu_text01_1492768222.png"},{"ID":"2810","Name":"PGD Quang Trung - H\u00e0 \u0110\u00f4ng","Phone":"(024) 33117626 ","Fax":"(024) 33117627","LongLat":"21.032369,105.848432","ProvinceID":"32","DistrictID":"4","Address":"353 Quang Trung, Ph\u01b0\u1eddng Quang Trung, Qu\u1eadn H\u00e0 \u0110\u00f4ng, H\u00e0 N\u1ed9i","BankName":"ABBank","BankLogo":"\/uploads\/2017\/04\/21\/thebank_abbank_logo_cochu_text01_1492768222.png"},{"ID":"2827","Name":"PGD \u0110a\u0300o T\u00e2\u0301n","Phone":"(024) 37669350","Fax":"(024) 37669360","LongLat":"21.0335449,105.8060662","ProvinceID":"32","DistrictID":"1","Address":"99 \u0110\u00e0o T\u1ea5n, Ph\u01b0\u1eddng Ng\u1ecdc Kh\u00e1nh, Qu\u1eadn Ba \u0110\u00ecnh, TP. H\u00e0 N\u1ed9i","BankName":"ABBank","BankLogo":"\/uploads\/2017\/04\/21\/thebank_abbank_logo_cochu_text01_1492768222.png"},{"ID":"3003","Name":"PGD \u0110\u1ed9i C\u1ea5n","Phone":"(024) 37226580","Fax":"(024) 37226579","LongLat":"21.0353765,105.8204872","ProvinceID":"32","DistrictID":"1","Address":"279A \u0110\u1ed9i C\u1ea5n, Ba \u0110\u00ecnh, H\u00e0 N\u1ed9i","BankName":"ABBank","BankLogo":"\/uploads\/2017\/04\/21\/thebank_abbank_logo_cochu_text01_1492768222.png"},{"ID":"3053","Name":"PGD Tr\u1ea7n \u0110\u0103ng Ninh","Phone":"(024) 37930436","Fax":"(024) 37930457","LongLat":"21.0377935,105.793544","ProvinceID":"32","DistrictID":"2","Address":"109 Tr\u1ea7n \u0110\u0103ng Ninh, Q. C\u1ea7u Gi\u1ea5y, H\u00e0 N\u1ed9i","BankName":"ABBank","BankLogo":"\/uploads\/2017\/04\/21\/thebank_abbank_logo_cochu_text01_1492768222.png"},{"ID":"3086","Name":"PGD H\u1ed3 T\u00f9ng M\u1eadu","Phone":"024.62871616","Fax":"---","LongLat":"21.0312482,105.7694511","ProvinceID":"32","DistrictID":"759","Address":"T\u1ea7ng 1 \u2013 Chung c\u01b0 C4 \u2013 K\u0110T M\u1ef9 \u0110\u00ccnh 1 \u2013 S\u1ed1 44 Ph\u1ed1 Nguy\u1ec5n C\u01a1 Th\u1ea1ch, Ph\u01b0\u1eddng C\u1ea7u Di\u1ec5n, Qu\u1eadn Nam T\u1eeb Li\u00eam- TP H\u00e0 N\u1ed9i","BankName":"ABBank","BankLogo":"\/uploads\/2017\/04\/21\/thebank_abbank_logo_cochu_text01_1492768222.png"},{"ID":"3134","Name":"PGD Ng\u00f4 Gia T\u1ef1","Phone":"(024) 36526405","Fax":"(024) 36526406","LongLat":"21.057825,105.890585","ProvinceID":"32","DistrictID":"22","Address":"86 Ng\u00f4 Gia T\u1ef1, Ph\u01b0\u1eddng \u0110\u1ee9c Giang, Qu\u1eadn Long Bi\u00ean, TP. H\u00e0 N\u1ed9i","BankName":"ABBank","BankLogo":"\/uploads\/2017\/04\/21\/thebank_abbank_logo_cochu_text01_1492768222.png"},{"ID":"3144","Name":"PGD Qu\u00e1n Th\u00e1nh","Phone":"(024) 37152406","Fax":"(024) 37152413","LongLat":"21.0424038,105.8421737","ProvinceID":"32","DistrictID":"1","Address":"132 Ph\u00f4\u0301 Qua\u0301n Tha\u0301nh, Ph\u01b0\u01a1\u0300ng Qua\u0301n Tha\u0301nh, Ba \u0110i\u0300nh, Ha\u0300 N\u00f4\u0323i","BankName":"ABBank","BankLogo":"\/uploads\/2017\/04\/21\/thebank_abbank_logo_cochu_text01_1492768222.png"},{"ID":"3218","Name":"PGD Nam Th\u0103ng Long","Phone":"(024) 37660999","Fax":"---","LongLat":"21.046045,105.799562","ProvinceID":"32","DistrictID":"42","Address":"T\u1ea7ng 1 T\u00f2a nh\u00e0 A3, D\u1ef1 \u00e1n th\u00e0nh ph\u1ea7n khu nh\u00e0 \u1edf cao t\u1ea7ng CT2 thu\u1ed9c khu \u0111\u00f4 th\u1ecb th\u00e0nh ph\u1ed1 Giao l\u01b0u s\u1ed1 232 Ph\u1ea1m V\u0103n \u0110\u1ed3ng, Ph\u01b0\u1eddng C\u1ed5 Nhu\u1ebf 1, Qu\u1eadn B\u1eafc T\u1eeb Li\u00eam, TP. H\u00e0 N\u1ed9i","BankName":"ABBank","BankLogo":"\/uploads\/2017\/04\/21\/thebank_abbank_logo_cochu_text01_1492768222.png"},{"ID":"3243","Name":"PGD Nguy\u1ec5n V\u0103n C\u1eeb","Phone":"(024) 38736040","Fax":"(024) 38736042","LongLat":"21.0480069,105.879978","ProvinceID":"32","DistrictID":"22","Address":"453 Nguy\u1ec5n V\u0103n C\u1eeb, Q. Long Bi\u00ean, H\u00e0 N\u1ed9i","BankName":"ABBank","BankLogo":"\/uploads\/2017\/04\/21\/thebank_abbank_logo_cochu_text01_1492768222.png"},{"ID":"3290","Name":"PGD Trung Y\u00ean","Phone":"(024) 38636688","Fax":"(024) 32272640","LongLat":"21.0167927,105.799175","ProvinceID":"32","DistrictID":"2","Address":"S\u1ed1 3, L\u00f4 2B, Khu \u0110\u00f4 th\u1ecb Trung Y\u00ean, Ph\u01b0\u1eddng Y\u00ean H\u00f2a, Qu\u1eadn C\u1ea7u Gi\u1ea5y, H\u00e0 N\u1ed9i","BankName":"ABBank","BankLogo":"\/uploads\/2017\/04\/21\/thebank_abbank_logo_cochu_text01_1492768222.png"},{"ID":"3325","Name":"PGD T\u00e2y H\u1ed3","Phone":"(024) 37592483","Fax":"(024) 37592484","LongLat":"21.063914,105.896103","ProvinceID":"32","DistrictID":"2","Address":"S\u1ed1 387 L\u1ea1c Long Qu\u00e2n, Qu\u1eadn C\u1ea7u Gi\u1ea5y, H\u00e0 N\u1ed9i","BankName":"ABBank","BankLogo":"\/uploads\/2017\/04\/21\/thebank_abbank_logo_cochu_text01_1492768222.png"},{"ID":"3380","Name":"QTK D\u1ee5c T\u00fa","Phone":"(024) 39617300","Fax":"(024) 39617302","LongLat":"21.0935421,105.8931422","ProvinceID":"32","DistrictID":"29","Address":"Km3, Qu\u1ed1c l\u1ed9 3, \u0110\u1ed3ng D\u1ea7u, Khu T1-T2 D\u1ee5c T\u00fa, Huy\u1ec7n \u0110\u00f4ng Anh, TP. H\u00e0 N\u1ed9i","BankName":"ABBank","BankLogo":"\/uploads\/2017\/04\/21\/thebank_abbank_logo_cochu_text01_1492768222.png"},{"ID":"3384","Name":"PGD B\u1eafc Th\u0103ng Long","Phone":"024 3.9518531","Fax":"024 3.9518534","LongLat":"21.1097545,105.7945633","ProvinceID":"32","DistrictID":"29","Address":"T\u00f2a nh\u00e0 9 t\u1ea7ng - Khu v\u1ef1c ch\u1ee3 C\u1ed5 \u0110i\u1ec3n, H\u1ea3i B\u1ed1i, \u0110\u00f4ng Anh, H\u00e0 N\u1ed9i","BankName":"ABBank","BankLogo":"\/uploads\/2017\/04\/21\/thebank_abbank_logo_cochu_text01_1492768222.png"},{"ID":"3401","Name":"PGD \u0110\u00f4ng Anh","Phone":"(024) 39655638","Fax":"(024) 39655640","LongLat":"21.139243,105.85462","ProvinceID":"32","DistrictID":"29","Address":"01 Cao L\u1ed7, Th\u00f4n Phan X\u00e1, X\u00e3 Uy N\u1ed7, Huy\u1ec7n \u0110\u00f4ng Anh, H\u00e0 N\u1ed9i","BankName":"ABBank","BankLogo":"\/uploads\/2017\/04\/21\/thebank_abbank_logo_cochu_text01_1492768222.png"},{"ID":"3471","Name":"PGD H\u00e0 \u0110\u00f4ng","Phone":"(024) 33545757","Fax":"(024) 33545017","LongLat":"20.9841109,105.7926044","ProvinceID":"32","DistrictID":"4","Address":"1 Tr\u1ea7n Ph\u00fa, Qu\u1eadn H\u00e0 \u0110\u00f4ng, TP. H\u00e0 N\u1ed9i","BankName":"ABBank","BankLogo":"\/uploads\/2017\/04\/21\/thebank_abbank_logo_cochu_text01_1492768222.png"},{"ID":"3510","Name":"PGD Ch\u00e1nh H\u01b0ng","Phone":"(028) 38523491\/93","Fax":"(028) 38505730","LongLat":"10.743855,106.668887","ProvinceID":"33","DistrictID":"70","Address":"S\u1ed1 320 bis Ch\u00e1nh H\u01b0ng, P.5, Q.8, TP.HCM","BankName":"ABBank","BankLogo":"\/uploads\/2017\/04\/21\/thebank_abbank_logo_cochu_text01_1492768222.png"}]