[{"ID":"92","Name":"Kienlongbank T\u00e2n S\u01a1n Nh\u00ec ","Phone":" 028 3810 3947","Fax":" 028 3810 3931","LongLat":"10.798667,106.631991","ProvinceID":"33","DistrictID":"77","Address":"S\u1ed1 1-1A \u0111\u01b0\u1eddng G\u00f2 D\u1ea7u, P. T\u00e2n Qu\u00fd, Q. T\u00e2n Ph\u00fa, Tp. HCM","BankName":"KienLong Bank","BankLogo":"\/images\/bank\/kienlong.png"},{"ID":"119","Name":"Kienlongbank An L\u1ea1c ","Phone":"028 6266 0936","Fax":"028 6266 0937","LongLat":"10.7446643,106.6226404","ProvinceID":"33","DistrictID":"72","Address":"S\u1ed1 279 - 281 Kinh D\u01b0\u01a1ng V\u01b0\u01a1ng, P. An L\u1ea1c, Q. B\u00ecnh T\u00e2n, Tp. HCM","BankName":"KienLong Bank","BankLogo":"\/images\/bank\/kienlong.png"},{"ID":"158","Name":"Kienlongbank Nguy\u1ec5n Th\u1ecb Th\u1eadp ","Phone":"028 3775 2004","Fax":" 028 3775 1844","LongLat":"10.7383259,106.7163634","ProvinceID":"33","DistrictID":"69","Address":"269 Nguy\u1ec5n Th\u1ecb Th\u1eadp, P. T\u00e2n Ph\u00fa, Qu\u1eadn 7, Tp. HCM","BankName":"KienLong Bank","BankLogo":"\/images\/bank\/kienlong.png"},{"ID":"196","Name":"Kienlongbank T\u00f9ng Thi\u1ec7n V\u01b0\u01a1ng ","Phone":" 028 39516447","Fax":" 028 39516448","LongLat":"10.7448243,106.6572261","ProvinceID":"33","DistrictID":"70","Address":"453 T\u00f9ng Thi\u1ec7n V\u01b0\u01a1ng, Ph\u01b0\u1eddng 12, Qu\u1eadn 8","BankName":"KienLong Bank","BankLogo":"\/images\/bank\/kienlong.png"},{"ID":"546","Name":"Kienlongbank Ng\u00f4 Gia T\u1ef1 ","Phone":" 028 3833 8361","Fax":"028 3833 8360","LongLat":"10.765799,106.6732818","ProvinceID":"33","DistrictID":"50","Address":"S\u1ed1 93 Ng\u00f4 Gia T\u1ef1, P.2, Q.u\u1eadn , Tp. HCM","BankName":"KienLong Bank","BankLogo":"\/images\/bank\/kienlong.png"},{"ID":"609","Name":"Kienlongbank \u0110\u1ea7m Sen","Phone":"028. 3974 1619 ","Fax":" 028. 3974 1621","LongLat":"10.7805183,106.6507093","ProvinceID":"33","DistrictID":"76","Address":"S\u1ed1 870 L\u1ea1c Long Qu\u00e2n, P. 8, Q. T\u00e2n B\u00ecnh, TP. HCM","BankName":"KienLong Bank","BankLogo":"\/images\/bank\/kienlong.png"},{"ID":"970","Name":"Kienlongbank T\u00e2n B\u00ecnh ","Phone":" 028. 3811 6260 ","Fax":"028. 3811 7606","LongLat":"10.783751,106.654401","ProvinceID":"33","DistrictID":"76","Address":"S\u1ed1 603 Ho\u00e0ng V\u0103n Th\u1ee5, P.4, Q. T\u00e2n B\u00ecnh, Tp. HCM","BankName":"KienLong Bank","BankLogo":"\/images\/bank\/kienlong.png"},{"ID":"1049","Name":"Kienlongbank S\u00e0i G\u00f2n ","Phone":"028. 3933.3933","Fax":"028. 3930.9112","LongLat":"10.7763303,106.6846907","ProvinceID":"33","DistrictID":"65","Address":"S\u1ed1 98 - 108A C\u00e1ch M\u1ea1ng Th\u00e1ng 8, P.7, Qu\u1eadn 3, Tp. HCM","BankName":"KienLong Bank","BankLogo":"\/images\/bank\/kienlong.png"},{"ID":"1313","Name":"Kienlongbank Ph\u00fa Nhu\u1eadn ","Phone":"028. 3845 5668 ","Fax":"028. 3845 5568","LongLat":"10.7927517,106.6800381","ProvinceID":"33","DistrictID":"75","Address":"S\u1ed1 117 - 119 Nguy\u1ec5n V\u0103n Tr\u1ed7i, P.12, Q.Ph\u00fa Nhu\u1eadn, Tp.HCM","BankName":"KienLong Bank","BankLogo":"\/images\/bank\/kienlong.png"},{"ID":"1421","Name":"Kienlongbank B\u00ecnh T\u00e2y ","Phone":"028 3969 0245","Fax":" 028 3969 5773","LongLat":"10.807904,106.66292","ProvinceID":"33","DistrictID":"76","Address":"S\u1ed1 34A H\u1eadu Giang. P.2, Qu\u1eadn 6, Tp. HCM","BankName":"KienLong Bank","BankLogo":"\/images\/bank\/kienlong.png"},{"ID":"1503","Name":"Kienlongbank C\u1ea7n Gi\u1edd ","Phone":"028 3874 2019","Fax":"028 3874 2029","LongLat":"10.8230989,106.6296638","ProvinceID":"33","DistrictID":"45","Address":"312 R\u1eebng S\u00e1c, \u1ea4p B\u00ecnh Thu\u1eadn, X\u00e3 B\u00ecnh Kh\u00e1nh, Huy\u1ec7n C\u1ea7n Gi\u1edd, Tp. H\u1ed3 Ch\u00ed Minh","BankName":"KienLong Bank","BankLogo":"\/images\/bank\/kienlong.png"},{"ID":"1581","Name":"Kienlongbank G\u00f2 V\u1ea5p ","Phone":" 028. 2253 2766","Fax":"028. 2253 2768","LongLat":"10.8360932,106.6597420","ProvinceID":"33","DistrictID":"74","Address":"S\u1ed1 366A13- 366A14 Phan V\u0103n Tr\u1ecb, Ph\u01b0\u1eddng 5, Qu\u1eadn G\u00f2 V\u1ea5p, Tp.HCM","BankName":"KienLong Bank","BankLogo":"\/images\/bank\/kienlong.png"},{"ID":"1653","Name":"Kienlongbank Th\u1ee7 \u0110\u1ee9c ","Phone":"028 3720 5623","Fax":"028 3720 5627","LongLat":"10.8510403,106.7560011","ProvinceID":"33","DistrictID":"78","Address":"S\u1ed1 15 - 17 V\u00f5 V\u0103n Ng\u00e2n, P. Linh Chi\u1ec3u, Q. Th\u1ee7 \u0110\u1ee9c, Tp. HCM","BankName":"KienLong Bank","BankLogo":"\/images\/bank\/kienlong.png"},{"ID":"1681","Name":"Kienlongbank Qu\u1eadn 12 ","Phone":"028 3718 5557","Fax":"028 3718 5558","LongLat":"10.8622725,106.6119933","ProvinceID":"33","DistrictID":"47","Address":"S\u1ed1 166 Nguy\u1ec5n \u1ea2nh Th\u1ee7, \u1ea4p \u0110\u00f4ng, X\u00e3 Th\u1edbi Tam Th\u00f4n, H. H\u00f3c M\u00f4n, Tp. HCM","BankName":"KienLong Bank","BankLogo":"\/images\/bank\/kienlong.png"},{"ID":"1722","Name":"Kienlongbank V\u0169ng Li\u00eam ","Phone":"0270.397.1999","Fax":"0270.397.1998","LongLat":"10.9080086,106.7552307","ProvinceID":"92","DistrictID":"663","Address":"S\u1ed1 178 Nam K\u1ef3 Kh\u1edfi Ngh\u0129a, Th\u1ecb tr\u1ea5n V\u0169ng Li\u00eam, Huy\u1ec7n V\u0169ng Li\u00eam, T\u1ec9nh V\u0129nh Long","BankName":"KienLong Bank","BankLogo":"\/images\/bank\/kienlong.png"},{"ID":"1750","Name":"Kienlongbank Tr\u00e0 \u00d4n ","Phone":"0270 377 2968 - 0270 377 2979 ","Fax":"0270 377 2969","LongLat":"11.0118652,106.6390514","ProvinceID":"92","DistrictID":"662","Address":"S\u1ed1 11, \u0110\u01b0\u1eddng L\u00ea V\u0103n Duy\u1ec7t, Khu 2, Th\u1ecb tr\u1ea5n Tr\u00e0 \u00d4n, Huy\u1ec7n Tr\u00e0 \u00d4n, T\u1ec9nh V\u0129nh Long","BankName":"KienLong Bank","BankLogo":"\/images\/bank\/kienlong.png"},{"ID":"1762","Name":"Kienlongbank C\u00e1i B\u00e8 ","Phone":"0273. 392 3458","Fax":"0273. 392 3233","LongLat":"10.3287818,106.0463837","ProvinceID":"89","DistrictID":"633","Address":"326A, Khu ph\u1ed1 3, Th\u1ecb tr\u1ea5n C\u00e1i B\u00e8, Huy\u1ec7n C\u00e1i B\u00e8, T\u1ec9nh Ti\u1ec1n Giang","BankName":"KienLong Bank","BankLogo":"\/images\/bank\/kienlong.png"},{"ID":"1778","Name":"Kienlongbank Tr\u1ea3ng B\u00e0ng","Phone":"0276.388.3366 ","Fax":"0276.382.6633","LongLat":"11.0274939,106.3779224","ProvinceID":"84","DistrictID":"579","Address":"18-19, Qu\u1ed1c l\u1ed9 22, Khu ph\u1ed1 L\u1ed9c An, Th\u1ecb tr\u1ea5n Tr\u1ea3ng B\u00e0ng, Huy\u1ec7n Tr\u1ea3ng B\u00e0ng, T\u1ec9nh T\u00e2y Ninh","BankName":"KienLong Bank","BankLogo":"\/images\/bank\/kienlong.png"},{"ID":"2175","Name":"Kienlongbank V\u0169ng T\u00e0u ","Phone":"0254. 362 1621","Fax":"0254. 351 3969","LongLat":"21.0023509,105.8507609","ProvinceID":"38","DistrictID":"127","Address":"S\u1ed1 234 L\u00ea H\u1ed3ng Phong, P.4, Tp. V\u0169ng T\u00e0u, T\u1ec9nh B\u00e0 R\u1ecba - V\u0169ng T\u00e0u","BankName":"KienLong Bank","BankLogo":"\/images\/bank\/kienlong.png"},{"ID":"2369","Name":"Kienlongbank Ch\u00e2u Th\u00e0nh ","Phone":"0276.387.7977 ","Fax":"0276.387.0666","LongLat":"21.013263,105.820065","ProvinceID":"84","DistrictID":"573","Address":"S\u1ed1 1088, \u0110\u01b0\u1eddng Ho\u00e0ng L\u00ea Kha, Th\u1ecb tr\u1ea5n Ch\u00e2u Th\u00e0nh, Huy\u1ec7n Ch\u00e2u Th\u00e0nh, T\u1ec9nh T\u00e2y Ninh","BankName":"KienLong Bank","BankLogo":"\/images\/bank\/kienlong.png"},{"ID":"2490","Name":"Kienlongbank H\u00e0 N\u1ed9i ","Phone":"024. 3933 4745","Fax":"024. 3933 4740","LongLat":"21.019772,105.856271","ProvinceID":"32","DistrictID":"6","Address":"S\u1ed1 19B Tr\u1ea7n H\u01b0ng \u0110\u1ea1o, P. Phan Chu Trinh, Q. Ho\u00e0n Ki\u1ebfm, Tp. H\u00e0 N\u1ed9i","BankName":"KienLong Bank","BankLogo":"\/images\/bank\/kienlong.png"},{"ID":"2554","Name":"Kienlongbank L\u00e1ng H\u1ea1 ","Phone":"024 3514 8767","Fax":"024 3514 8764","LongLat":"21.022142,105.8191004","ProvinceID":"32","DistrictID":"1","Address":"S\u1ed1 5A L\u00e1ng H\u1ea1, P. Th\u00e0nh C\u00f4ng, Q. Ba \u0110\u00ecnh, Tp. H\u00e0 N\u1ed9i","BankName":"KienLong Bank","BankLogo":"\/images\/bank\/kienlong.png"},{"ID":"2571","Name":"Kienlongbank C\u1ea7u Gi\u1ea5y ","Phone":"024.3259 5545","Fax":"024.3259 5547","LongLat":"21.0222665,105.8005982","ProvinceID":"32","DistrictID":"2","Address":"S\u1ed1 85 Nguy\u1ec5n V\u0103n Huy\u00ean, P. Quan Hoa, Q. C\u1ea7u Gi\u1ea5y, Tp. H\u00e0 N\u1ed9i","BankName":"KienLong Bank","BankLogo":"\/images\/bank\/kienlong.png"},{"ID":"3147","Name":"Kienlongbank Ba \u0110\u00ecnh ","Phone":"024 3927 4816","Fax":"024 3927 4817","LongLat":"21.042332,105.8453","ProvinceID":"32","DistrictID":"1","Address":"S\u1ed1 17 Ph\u1ed1 H\u00e0ng B\u00fan, P. Nguy\u1ec5n Trung Tr\u1ef1c, Q. Ba \u0110\u00ecnh, Tp. H\u00e0 N\u1ed9i","BankName":"KienLong Bank","BankLogo":"\/images\/bank\/kienlong.png"},{"ID":"6961","Name":"Kienlongbank H\u1ed9 Ph\u00f2ng","Phone":"0291. 3672 636 ","Fax":"0291. 3672 637","LongLat":"9.2234179,105.4243804","ProvinceID":"41","DistrictID":"147","Address":"S\u1ed1 164 \u1ea5p 02, TT. H\u1ed9 Ph\u00f2ng, H. Gi\u00e1 Rai, T. B\u1ea1c Li\u00eau.","BankName":"KienLong Bank","BankLogo":"\/images\/bank\/kienlong.png"},{"ID":"6962","Name":"Kienlongbank B\u1ea1c Li\u00eau ","Phone":"0291. 395 8860","Fax":"0291. 395 8864","LongLat":"9.297723,105.7181608","ProvinceID":"41","DistrictID":"151","Address":"S\u1ed1 466 \u0111\u01b0\u1eddng Tr\u1ea7n Ph\u00fa, kh\u00f3m 1, ph\u01b0\u1eddng 7, th\u00e0nh ph\u1ed1 B\u1ea1c Li\u00eau, t\u1ec9nh B\u1ea1c Li\u00eau","BankName":"KienLong Bank","BankLogo":"\/images\/bank\/kienlong.png"},{"ID":"6963","Name":"Kienlongbank Ph\u00fa M\u1ef9 ","Phone":"0254.3 898 188","Fax":"0254.3 898 187","LongLat":"10.5417397,107.2429976","ProvinceID":"38","DistrictID":"125","Address":"S\u1ed1 298 \u0110\u1ed9c L\u1eadp, TT. Ph\u00fa M\u1ef9, H. T\u00e2n Th\u00e0nh, T. B\u00e0 R\u1ecba \u2013 V\u0169ng T\u00e0u","BankName":"KienLong Bank","BankLogo":"\/images\/bank\/kienlong.png"},{"ID":"6964","Name":"Kienlongbank B\u00e0 R\u1ecba - V\u0169ng T\u00e0u","Phone":"0254. 3737 989","Fax":"0254. 3737 988","LongLat":"10.4996732,107.1583104","ProvinceID":"38","DistrictID":"128","Address":"S\u1ed1 26A-28-30 C\u00e1ch M\u1ea1ng Th\u00e1ng T\u00e1m, Kp. H\u01b0\u01a1ng T\u00e2n, P. Long H\u01b0\u01a1ng, Tp. B\u00e0 R\u1ecba, T. B\u00e0 R\u1ecba \u2013 V\u0169ng T\u00e0u","BankName":"KienLong Bank","BankLogo":"\/images\/bank\/kienlong.png"},{"ID":"6965","Name":"Kienlongbank T\u00e2n Ch\u00e2u ","Phone":"0296. 3596 027","Fax":"0296. 3596 026","LongLat":"10.7990323,105.2485131","ProvinceID":"37","DistrictID":"120","Address":"S\u1ed1 30 Nguy\u1ec5n V\u0103n Linh, P. Long Th\u1ea1nh, Tx. T\u00e2n Ch\u00e2u, T. An Giang","BankName":"KienLong Bank","BankLogo":"\/images\/bank\/kienlong.png"},{"ID":"6966","Name":"Kienlongbank Tho\u1ea1i S\u01a1n ","Phone":"0296. 6259 149 ","Fax":"0296.6259 147","LongLat":"10.2697757,105.2677921","ProvinceID":"37","DistrictID":"115","Address":"S\u1ed1 311 Nguy\u1ec5n Hu\u1ec7, TT. N\u00fai S\u1eadp, H. Tho\u1ea1i S\u01a1n, T. An Giang","BankName":"KienLong Bank","BankLogo":"\/images\/bank\/kienlong.png"},{"ID":"6967","Name":"Kienlongbank Ch\u00e2u \u0110\u1ed1c ","Phone":"0296. 3566 338","Fax":"0296. 3566 336","LongLat":"10.6654936,105.0908147","ProvinceID":"37","DistrictID":"119","Address":"S\u1ed1 26 Phan V\u0103n V\u00e0ng, Kh\u00f3m Ch\u00e2u Qu\u1edbi 3, P. Ch\u00e2u Ph\u00fa B, Tp. Ch\u00e2u \u0110\u1ed1c, T. An Giang","BankName":"KienLong Bank","BankLogo":"\/images\/bank\/kienlong.png"},{"ID":"6968","Name":"Kienlongbank An Giang ","Phone":"0296. 3940 945","Fax":"0296. 3940 944","LongLat":"10.3776813,105.4420344","ProvinceID":"37","DistrictID":"118","Address":"S\u1ed1 l\u00f4 21, 22A2 L\u00fd Th\u00e1i T\u1ed5, K. 3, P. M\u1ef9 Long, Tp. Long Xuy\u00ean, T. An Giang","BankName":"KienLong Bank","BankLogo":"\/images\/bank\/kienlong.png"},{"ID":"7391","Name":"Kienlongbank B\u00ecnh Minh ","Phone":"0270. 3741 737 ","Fax":"0270. 3741 736","LongLat":"10.0861281,106.0169971","ProvinceID":"92","DistrictID":"657","Address":"S\u1ed1 144 Ng\u00f4 Quy\u1ec1n, Kh\u00f3m 1, P. C\u00e1i V\u1ed3n, Tx. B\u00ecnh Minh, T. V\u0129nh Long","BankName":"KienLong Bank","BankLogo":"\/images\/bank\/kienlong.png"},{"ID":"7392","Name":"Kienlongbank V\u0129nh Long ","Phone":"0270. 385 3337","Fax":"0270. 385.3336","LongLat":"10.2361078,105.9049416","ProvinceID":"92","DistrictID":"664","Address":"S\u1ed1 1K-1H \u0110\u01b0\u1eddng 30\/4, P.1, Tp. V\u0129nh Long, T. V\u0129nh Long","BankName":"KienLong Bank","BankLogo":"\/images\/bank\/kienlong.png"},{"ID":"7393","Name":"Kienlongbank C\u00e0ng Long ","Phone":" 0294. 3885 777 ","Fax":"0294. 3885 100","LongLat":"9.996365,106.205211","ProvinceID":"90","DistrictID":"643","Address":"S\u1ed1 11 Qu\u1ed1c l\u1ed9 53, Th\u1ecb tr\u1ea5n C\u00e0ng Long, H. C\u00e0ng Long, T. Tr\u00e0 Vinh.","BankName":"KienLong Bank","BankLogo":"\/images\/bank\/kienlong.png"},{"ID":"7394","Name":"Kienlongbank Ti\u1ec3u C\u1ea7n ","Phone":"0294. 3614 555 ","Fax":"0294. 3614 123","LongLat":"9.812741,106.2992912","ProvinceID":"90","DistrictID":"648","Address":"S\u1ed1 125A Qu\u1ed1c l\u1ed9 60 Kh\u00f3m 2, TT. Ti\u1ec3u C\u1ea7n, H. Ti\u1ec3u C\u1ea7n, T. Tr\u00e0 Vinh","BankName":"KienLong Bank","BankLogo":"\/images\/bank\/kienlong.png"},{"ID":"7395","Name":"Kienlongbank Duy\u00ean H\u1ea3i ","Phone":"0294. 3833 444","Fax":"0294. 3833 969","LongLat":"9.812741,106.2992912","ProvinceID":"90","DistrictID":"647","Address":"C\u0103n nh\u00e0 s\u1ed1 2, thu\u1ed9c d\u00e3y 4, c\u0103n l\u00f4 10, Kh\u00f3m 1, P. 1, Tx. Duy\u00ean H\u1ea3i, T. Tr\u00e0 Vinh","BankName":"KienLong Bank","BankLogo":"\/images\/bank\/kienlong.png"},{"ID":"7396","Name":"Kienlongbank Tr\u00e0 Vinh ","Phone":"0294. 385 3999 ","Fax":"0294. 385 8456","LongLat":"9.9375225,106.3436621","ProvinceID":"90","DistrictID":"650","Address":"S\u1ed1 67 L\u00fd Th\u01b0\u1eddng Ki\u1ec7t, P. 3, Tp. Tr\u00e0 Vinh, T. Tr\u00e0 Vinh.","BankName":"KienLong Bank","BankLogo":"\/images\/bank\/kienlong.png"},{"ID":"7397","Name":"Kienlongbank G\u00f2 C\u00f4ng ","Phone":"0273. 3511 666 ","Fax":"0273. 3511 011","LongLat":"10.4106494,106.6645007","ProvinceID":"89","DistrictID":"642","Address":"S\u1ed1 5 Nguy\u1ec5n Tri Ph\u01b0\u01a1ng, Kp.1, P.2, Tx. G\u00f2 C\u00f4ng, T. Ti\u1ec1n Giang","BankName":"KienLong Bank","BankLogo":"\/images\/bank\/kienlong.png"},{"ID":"7398","Name":"Kienlongbank Cai L\u1eady ","Phone":"0273. 377 2222 ","Fax":"0273. 377 2227","LongLat":"10.4287401,106.1110501","ProvinceID":"89","DistrictID":"634","Address":"S\u1ed1 19 T\u1ec9nh l\u1ed9 868, Khu 1, P. 1, Tx. Cai L\u1eady, T. Ti\u1ec1n Giang","BankName":"KienLong Bank","BankLogo":"\/images\/bank\/kienlong.png"},{"ID":"7399","Name":"Kienlongbank Ti\u1ec1n Giang ","Phone":"0273. 397 2222 ","Fax":"0273. 388 8822","LongLat":"10.3635188,106.3592556","ProvinceID":"89","DistrictID":"641","Address":"S\u1ed1 300-302-304-306-308 H\u00f9ng V\u01b0\u01a1ng, X\u00e3 \u0110\u1ea1o Th\u1ea1nh, Tp. M\u1ef9 Tho, T. Ti\u1ec1n Giang","BankName":"KienLong Bank","BankLogo":"\/images\/bank\/kienlong.png"},{"ID":"7402","Name":"Kienlongbank T\u00e2y Ninh ","Phone":"0276. 3886 633 ","Fax":"0276. 3926 926","LongLat":"11.3675415,106.1192802","ProvinceID":"84","DistrictID":"580","Address":"S\u1ed1 683 C\u00e1ch M\u1ea1ng Th\u00e1ng T\u00e1m, Kp.2, P.3, Tp. T\u00e2y Ninh, T. T\u00e2y Ninh.","BankName":"KienLong Bank","BankLogo":"\/images\/bank\/kienlong.png"},{"ID":"7403","Name":"Kienlongbank Th\u1ea1nh Tr\u1ecb ","Phone":"0299. 3818 838","Fax":"0299. 3818 858","LongLat":"16.3938341,107.5692406","ProvinceID":"82","DistrictID":"557","Address":"S\u1ed1 333 Qu\u1ed1c l\u1ed9 1A, Th\u1ecb tr\u1ea5n Ph\u00fa L\u1ed9c, Huy\u1ec7n Th\u1ea1nh Tr\u1ecb, T\u1ec9nh S\u00f3c Tr\u0103ng","BankName":"KienLong Bank","BankLogo":"\/images\/bank\/kienlong.png"},{"ID":"7404","Name":"Kienlongbank V\u0129nh Ch\u00e2u ","Phone":"0299. 3888 688","Fax":"0299. 3888 988","LongLat":"9.3230423,105.9752809","ProvinceID":"82","DistrictID":"559","Address":"S\u1ed1 45D Nguy\u1ec5n Hu\u1ec7, P.1, Tx. V\u0129nh Ch\u00e2u, T. S\u00f3c Tr\u0103ng.","BankName":"KienLong Bank","BankLogo":"\/images\/bank\/kienlong.png"},{"ID":"7405","Name":"Kienlongbank S\u00f3c Tr\u0103ng ","Phone":"0299. 3645 668 ","Fax":"0299. 3820 666","LongLat":"9.5983035,105.9721382","ProvinceID":"82","DistrictID":"560","Address":"S\u1ed1 193-197 Tr\u1ea7n H\u01b0ng \u0110\u1ea1o, P.3, Tp. S\u00f3c Tr\u0103ng","BankName":"KienLong Bank","BankLogo":"\/images\/bank\/kienlong.png"},{"ID":"7406","Name":"Kienlongbank S\u00f4ng C\u1ea7u ","Phone":"0257. 369 9699","Fax":"0257. 372 9393","LongLat":"","ProvinceID":"76","DistrictID":"486","Address":"S\u1ed1 8, Nguy\u1ec5n Hu\u1ec7, Ph\u01b0\u1eddng Xu\u00e2n Ph\u00fa, Th\u1ecb X\u00e3 S\u00f4ng C\u1ea7u, t\u1ec9nh Ph\u00fa Y\u00ean","BankName":"KienLong Bank","BankLogo":"\/images\/bank\/kienlong.png"},{"ID":"7407","Name":"Kienlongbank Ph\u00fa Y\u00ean ","Phone":"0257. 382 9393","Fax":"0257. 382 5464","LongLat":"13.0885411,109.3061532","ProvinceID":"76","DistrictID":"485","Address":"S\u1ed1 97 Nguy\u1ec5n Tr\u00e3i, P.4, Tp. Tuy H\u00f2a, T. Ph\u00fa Y\u00ean","BankName":"KienLong Bank","BankLogo":"\/images\/bank\/kienlong.png"},{"ID":"7408","Name":"Kienlongbank C\u1ea7n Giu\u1ed9c","Phone":"0272. 373 2288","Fax":"0272. 373 2688","LongLat":"10.5734893,106.6143944","ProvinceID":"70","DistrictID":"409","Address":"S\u1ed1 72A, QL. 50, \u1ea4p Thu\u1eadn \u0110\u00f4ng, X\u00e3 Thu\u1eadn Th\u00e0nh, H. C\u1ea7n Giu\u1ed9c, T. Long An","BankName":"KienLong Bank","BankLogo":"\/images\/bank\/kienlong.png"},{"ID":"7409","Name":"Kienlongbank \u0110\u1ee9c H\u00f2a ","Phone":"0272.376 8806 ","Fax":"0272.376 8805","LongLat":"10.9023378,106.418534","ProvinceID":"70","DistrictID":"411","Address":"S\u1ed1 159-161 \u0111\u01b0\u1eddng t\u1ec9nh l\u1ed9 824, t\u1ed5 3, \u1ea5p B\u00ecnh T\u1ea3 1, X. \u0110\u1ee9c H\u00f2a H\u1ea1, H. \u0110\u1ee9c H\u00f2a, T. Long An","BankName":"KienLong Bank","BankLogo":"\/images\/bank\/kienlong.png"},{"ID":"7410","Name":"Kienlongbank T\u00e2n An ","Phone":"0272. 364 7878","Fax":"0272. 364 787","LongLat":"16.6034609,107.3269468","ProvinceID":"70","DistrictID":"420","Address":"S\u1ed1 50-52 Qu\u1ed1c l\u1ed9 1 (Tuy\u1ebfn tr\u00e1nh), Khu \u0111\u00f4 th\u1ecb TTHC t\u1ec9nh, P.6, Tp. T\u00e2n An, T. Long An","BankName":"KienLong Bank","BankLogo":"\/images\/bank\/kienlong.png"},{"ID":"7411","Name":"Kienlongbank Long An ","Phone":"0272. 356 7072 ","Fax":"0272. 356 7071","LongLat":"10.6242064,106.4890469","ProvinceID":"70","DistrictID":"407","Address":"\u0110\u01b0\u1eddng s\u1ed1 1, khu c\u00f4ng nghi\u1ec7p Thu\u1eadn \u0110\u1ea1o, th\u1ecb tr\u1ea5n B\u1ebfn L\u1ee9c, huy\u1ec7n B\u1ebfn L\u1ee9c, t\u1ec9nh Long An","BankName":"KienLong Bank","BankLogo":"\/images\/bank\/kienlong.png"},{"ID":"7412","Name":"Kienlongbank An Minh  ","Phone":"0297. 3945 599 ","Fax":"0297. 3945 598","LongLat":"","ProvinceID":"64","DistrictID":"357","Address":"Khu ph\u1ed1 3, Th\u1ecb tr\u1ea5n Th\u1ee9 11, Huy\u1ec7n An Minh, T\u1ec9nh Ki\u00ean Giang","BankName":"KienLong Bank","BankLogo":"\/images\/bank\/kienlong.png"},{"ID":"7413","Name":"Kienlongbank H\u00f2n \u0110\u1ea5t ","Phone":"0297. 3786 898","Fax":"0297. 3786 989","LongLat":"10.1875555,104.9213643","ProvinceID":"64","DistrictID":"362","Address":"S\u1ed1 32 T\u1ed5 8, Kp. Tri T\u00f4n, Th\u1ecb tr\u1ea5n H\u00f2n \u0110\u1ea5t, H. H\u00f2n \u0110\u1ea5t, T. Ki\u00ean Giang","BankName":"KienLong Bank","BankLogo":"\/images\/bank\/kienlong.png"},{"ID":"7414","Name":"Kienlongbank H\u00e0 Ti\u00ean ","Phone":"0297. 3952 810 ","Fax":"0297. 3952 852","LongLat":"10.3836516,104.4866865","ProvinceID":"64","DistrictID":"370","Address":" S\u1ed1 171 M\u1ea1c Thi\u00ean T\u00edch, P. B\u00ecnh San, Tx. H\u00e0 Ti\u00ean, T. Ki\u00ean Giang.","BankName":"KienLong Bank","BankLogo":"\/images\/bank\/kienlong.png"},{"ID":"7415","Name":"Kienlongbank S\u1ed1 4 ","Phone":"0297. 3856 368 ","Fax":"0297. 3755 373","LongLat":"10.2833929,104.6387513","ProvinceID":"64","DistrictID":"364","Address":"S\u1ed1 349 Qu\u1ed1c l\u1ed9 80, Th\u1ecb tr\u1ea5n Ki\u00ean L\u01b0\u01a1ng, H. Ki\u00ean L\u01b0\u01a1ng, T. Ki\u00ean Giang.","BankName":"KienLong Bank","BankLogo":"\/images\/bank\/kienlong.png"},{"ID":"7416","Name":"Kienlongbank S\u1ed1 3 ","Phone":" 0297. 3821 476","Fax":" 0297. 3630 010","LongLat":"39.0172695,-79.0013064","ProvinceID":"64","DistrictID":"360","Address":"S\u1ed1 28 \u0111\u01b0\u1eddng 30\/4, TT. Gi\u1ed3ng Ri\u1ec1ng, T. Ki\u00ean Giang.","BankName":"KienLong Bank","BankLogo":"\/images\/bank\/kienlong.png"},{"ID":"7417","Name":"Kienlongbank S\u1ed1 2 ","Phone":"0297. 3717273 ","Fax":"0297. 3717 274","LongLat":"10.1099017,105.3014109","ProvinceID":"64","DistrictID":"366","Address":"S\u1ed1 171, Khu ph\u1ed1 Kinh B, Th\u1ecb Tr\u1ea5n T\u00e2n Hi\u1ec7p, Huy\u1ec7n T\u00e2n Hi\u1ec7p, T\u1ec9nh Ki\u00ean Giang","BankName":"KienLong Bank","BankLogo":"\/images\/bank\/kienlong.png"},{"ID":"7418","Name":"Kienlongbank An Th\u1edbi ","Phone":"0297. 3999 993 ","Fax":" 0297. 3999 994","LongLat":"10.0200273,104.0166716","ProvinceID":"64","DistrictID":"365","Address":"S\u1ed1 109 Nguy\u1ec5n V\u0103n C\u1eeb, KP3, Th\u1ecb tr\u1ea5n An Th\u1edbi, H. Ph\u00fa Qu\u1ed1c, T. Ki\u00ean Giang","BankName":"KienLong Bank","BankLogo":"\/images\/bank\/kienlong.png"},{"ID":"7419","Name":"Kienlongbank Ph\u00fa Qu\u1ed1c","Phone":"0297. 3848 621 ","Fax":"0297. 3983 279","LongLat":"10.7581469,106.7012554","ProvinceID":"64","DistrictID":"365","Address":"S\u1ed1 139 \u0110\u01b0\u1eddng 30\/4,Kp1, Th\u1ecb tr\u1ea5n D\u01b0\u01a1ng \u0110\u00f4ng, H. Ph\u00fa Qu\u1ed1c, T. Ki\u00ean Giang.","BankName":"KienLong Bank","BankLogo":"\/images\/bank\/kienlong.png"},{"ID":"7420","Name":"Kienlongbank R\u1ea1ch S\u1ecfi ","Phone":"0297. 3912 468","Fax":"0297. 3917 574","LongLat":"9.9553577,105.1214629","ProvinceID":"64","DistrictID":"369","Address":"S\u1ed1 1A C\u00e1ch m\u1ea1ng th\u00e1ng 8, P. V\u0129nh L\u1ee3i, Tp. R\u1ea1ch Gi\u00e1, T. Ki\u00ean Giang.","BankName":"KienLong Bank","BankLogo":"\/images\/bank\/kienlong.png"},{"ID":"7421","Name":"Kienlongbank R\u1ea1ch Gi\u00e1 ","Phone":"0297. 3869 950 ","Fax":"0297. 3871 171","LongLat":"10.0112828,105.0830793","ProvinceID":"64","DistrictID":"369","Address":"S\u1ed1 40-42-44 Ph\u1ea1m H\u1ed3ng Th\u00e1i, P. V\u0129nh Thanh V\u00e2n, Tp. R\u1ea1ch Gi\u00e1, T. Ki\u00ean Giang.","BankName":"KienLong Bank","BankLogo":"\/images\/bank\/kienlong.png"},{"ID":"7422","Name":"Kienlongbank V\u1ea1n Ninh ","Phone":"0258. 391 3891","Fax":"0258. 391 3883","LongLat":"12.6958348,109.2240988","ProvinceID":"63","DistrictID":"353","Address":"S\u1ed1 270 H\u00f9ng V\u01b0\u01a1ng, Th\u1ecb tr\u1ea5n V\u1ea1n Gi\u00e3, H. V\u1ea1n Ninh, T. Kh\u00e1nh H\u00f2a.","BankName":"KienLong Bank","BankLogo":"\/images\/bank\/kienlong.png"},{"ID":"7423","Name":"Kienlongbank Cam Ranh ","Phone":"0258. 395 6767","Fax":"0258. 395 6464","LongLat":"11.9134563,109.1564671","ProvinceID":"63","DistrictID":"355","Address":"S\u1ed1 72-74 \u0110\u01b0\u1eddng 22\/8, P. Cam Thu\u1eadn, Tp. Cam Ranh, T. Kh\u00e1nh H\u00f2a","BankName":"KienLong Bank","BankLogo":"\/images\/bank\/kienlong.png"},{"ID":"7424","Name":"Kienlongbank Ninh H\u00f2a ","Phone":"0258. 3635 863","Fax":"0258. 3635 869","LongLat":"12.4921507,109.1262884","ProvinceID":"63","DistrictID":"351","Address":"S\u1ed1 523A Tr\u1ea7n Qu\u00fd C\u00e1p, P. Ninh Hi\u1ec7p, Th\u1ecb x\u00e3 Ninh H\u00f2a, T. Kh\u00e1nh H\u00f2a","BankName":"KienLong Bank","BankLogo":"\/images\/bank\/kienlong.png"},{"ID":"7425","Name":"Kienlongbank Di\u00ean Kh\u00e1nh ","Phone":"0258. 375 3111 ","Fax":"0258. 375 3113","LongLat":"12.2616224,109.0958489","ProvinceID":"63","DistrictID":"348","Address":"S\u1ed1 140 L\u1ea1c Long Qu\u00e2n, Th\u1ecb tr\u1ea5n Di\u00ean Kh\u00e1nh, H. Di\u00ean Kh\u00e1nh, T. Kh\u00e1nh H\u00f2a.","BankName":"KienLong Bank","BankLogo":"\/images\/bank\/kienlong.png"},{"ID":"7426","Name":"Kienlongbank B\u00ecnh T\u00e2n ","Phone":"0258. 3883 777 ","Fax":" 0258. 3883 444","LongLat":"12.2181481,109.2019099","ProvinceID":"63","DistrictID":"354","Address":"S\u1ed1 260 D\u00e3 T\u01b0\u1ee3ng, P. V\u0129nh Nguy\u00ean, Tp. Nha Trang, T. Kh\u00e1nh H\u00f2a","BankName":"KienLong Bank","BankLogo":"\/images\/bank\/kienlong.png"},{"ID":"7427","Name":"Kienlongbank V\u0129nh H\u1ea3i ","Phone":"0258. 354 1133 ","Fax":"0258. 354 2454","LongLat":"12.2777116,109.1967411","ProvinceID":"63","DistrictID":"354","Address":"S\u1ed1 420 \u0111\u01b0\u1eddng 2\/4, P. V\u0129nh H\u1ea3i, Tp. Nha Trang, T. Kh\u00e1nh H\u00f2a.","BankName":"KienLong Bank","BankLogo":"\/images\/bank\/kienlong.png"},{"ID":"7428","Name":"Kienlongbank Kh\u00e1nh H\u00f2a ","Phone":"0258. 356 3446 ","Fax":"0258. 356 3448","LongLat":"12.2493946,109.188867","ProvinceID":"63","DistrictID":"354","Address":"S\u1ed1 54A Yersin, P. Ph\u01b0\u01a1ng S\u00e0i, Tp. Nha Trang, T. Kh\u00e1nh H\u00f2a","BankName":"KienLong Bank","BankLogo":"\/images\/bank\/kienlong.png"},{"ID":"7429","Name":"Kienlongbank Ng\u00e3 B\u1ea3y ","Phone":"0293. 3963 678 ","Fax":"0293. 3963 399","LongLat":"9.8143797,105.8195829","ProvinceID":"60","DistrictID":"336","Address":"S\u1ed1 29 Nguy\u1ec5n Th\u1ecb Minh Khai, P. Ng\u00e3 B\u1ea3y, Tx. Ng\u00e3 B\u1ea3y, T. H\u1eadu Giang","BankName":"KienLong Bank","BankLogo":"\/images\/bank\/kienlong.png"},{"ID":"7430","Name":"Kienlongbank Ph\u1ee5ng Hi\u1ec7p ","Phone":"0293. 3936 678","Fax":"0293. 3936 777","LongLat":"10.7900517,106.6281901","ProvinceID":"60","DistrictID":"331","Address":"S\u1ed1 639 Qu\u1ed1c l\u1ed9 1A, \u1ea5p T\u00e2n Ph\u00fa A, TT. C\u00e1i T\u1eafc, H. Ch\u00e2u Th\u00e0nh A, T. H\u1eadu Giang.","BankName":"KienLong Bank","BankLogo":"\/images\/bank\/kienlong.png"},{"ID":"7431","Name":"Kienlongbank Long M\u1ef9 ","Phone":"0293. 3511 868","Fax":"0293. 3511 444","LongLat":"9.669597,105.5650239","ProvinceID":"60","DistrictID":"332","Address":"S\u1ed1 44N C\u00e1ch M\u1ea1ng Th\u00e1ng 8, Khu v\u1ef1c 2, P. Thu\u1eadn An, Tx. Long M\u1ef9, T. H\u1eadu Giang","BankName":"KienLong Bank","BankLogo":"\/images\/bank\/kienlong.png"},{"ID":"7432","Name":"Kienlongbank H\u1eadu Giang ","Phone":"0293. 3582 277","Fax":"0293. 3582 278","LongLat":"13.8006854,109.1474137","ProvinceID":"60","DistrictID":"335","Address":"S\u1ed1 44 \u0110\u01b0\u1eddng 1\/5, P.1, Tp. V\u1ecb Thanh, T. H\u1eadu Giang","BankName":"KienLong Bank","BankLogo":"\/images\/bank\/kienlong.png"},{"ID":"7433","Name":"Kienlongbank Ki\u1ebfn An ","Phone":"0225. 354 5959 ","Fax":"0225. 354 5979","LongLat":"20.821129,106.649105","ProvinceID":"36","DistrictID":"688","Address":"S\u1ed1 25 Tr\u1ea7n Nh\u00e2n T\u00f4ng, P. Qu\u00e1n Tr\u1eef, Q. Ki\u1ebfn An, Tp. H\u1ea3i Ph\u00f2ng","BankName":"KienLong Bank","BankLogo":"\/images\/bank\/kienlong.png"},{"ID":"7434","Name":"Kienlongbank Ng\u00f4 Quy\u1ec1n ","Phone":"0225. 356 8406 ","Fax":"0225. 356 8407","LongLat":"20.8613432,106.703124","ProvinceID":"36","DistrictID":"109","Address":"S\u1ed1 263 \u0110\u00e0 N\u1eb5ng, P. C\u1ea7u Tre, Q. Ng\u00f4 Quy\u1ec1n, Tp. H\u1ea3i Ph\u00f2ng","BankName":"KienLong Bank","BankLogo":"\/images\/bank\/kienlong.png"},{"ID":"7435","Name":"Kienlongbank L\u1ea1ch Tray ","Phone":"0225. 384 5868 ","Fax":"0225. 384 5586","LongLat":"20.8346334,106.6968586","ProvinceID":"36","DistrictID":"109","Address":"S\u1ed1 227 L\u1ea1ch Tray, P. \u0110\u1eb1ng Giang, Q. Ng\u00f4 Quy\u1ec1n, Tp. H\u1ea3i Ph\u00f2ng","BankName":"KienLong Bank","BankLogo":"\/images\/bank\/kienlong.png"},{"ID":"7436","Name":"Kienlongbank Tr\u1ea7n Nguy\u00ean H\u00e3n ","Phone":"0225. 371.9358 ","Fax":" 0225. 371.9360","LongLat":"20.847529,106.671905","ProvinceID":"36","DistrictID":"108","Address":"S\u1ed1 167E Tr\u1ea7n Nguy\u00ean H\u00e3n, P. Tr\u1ea7n Nguy\u00ean H\u00e3n, Q. L\u00ea Ch\u00e2n, Tp. H\u1ea3i Ph\u00f2ng","BankName":"KienLong Bank","BankLogo":"\/images\/bank\/kienlong.png"},{"ID":"7437","Name":"Kienlongbank H\u1ea3i Ph\u00f2ng ","Phone":"0225. 361 1245 ","Fax":"0225. 361 1246","LongLat":"20.8516436,106.683361","ProvinceID":"36","DistrictID":"108","Address":"S\u1ed1 87 T\u00f4 Hi\u1ec7u, P. Tr\u1ea1i Cau, Q. L\u00ea Ch\u00e2n, Tp. H\u1ea3i Ph\u00f2ng.","BankName":"KienLong Bank","BankLogo":"\/images\/bank\/kienlong.png"},{"ID":"7438","Name":"Kienlongbank Th\u00e1p M\u01b0\u1eddi ","Phone":"0277. 3615 666 ","Fax":"0277. 3619 888","LongLat":"10.4937989,105.6881788","ProvinceID":"54","DistrictID":"268","Address":"S\u1ed1 16\/D Nguy\u1ec5n V\u0103n Tre, Kh\u00f3m 4, TT. M\u1ef9 An, H. Th\u00e1p M\u01b0\u1eddi, T. \u0110\u1ed3ng Th\u00e1p","BankName":"KienLong Bank","BankLogo":"\/images\/bank\/kienlong.png"},{"ID":"7439","Name":"Kienlongbank H\u1ed3ng Ng\u1ef1 ","Phone":"0277. 3563 801","Fax":"0277. 3563 800","LongLat":"10.8143532,105.3453184","ProvinceID":"54","DistrictID":"263","Address":"S\u1ed1 38-40 H\u00f9ng V\u01b0\u01a1ng, P. An Th\u1ea1nh, Tx. H\u1ed3ng Ng\u1ef1, T. \u0110\u1ed3ng Th\u00e1p","BankName":"KienLong Bank","BankLogo":"\/images\/bank\/kienlong.png"},{"ID":"7440","Name":"Kienlongbank Sa \u0110\u00e9c ","Phone":"0277. 377 5555 ","Fax":"0277. 377 5556","LongLat":"10.2935207,105.7570442","ProvinceID":"54","DistrictID":"271","Address":"S\u1ed1 A22 H\u00f9ng V\u01b0\u01a1ng, P. 2, Tp. Sa \u0110\u00e9c, T. \u0110\u1ed3ng Th\u00e1p","BankName":"KienLong Bank","BankLogo":"\/images\/bank\/kienlong.png"},{"ID":"7441","Name":"Kienlongbank \u0110\u1ed3ng Th\u00e1p ","Phone":"0277. 3876 401 ","Fax":"0277. 3876 400","LongLat":"10.4591462,105.6353739","ProvinceID":"54","DistrictID":"261","Address":"S\u1ed1 30 L\u00fd Th\u01b0\u1eddng Ki\u1ec7t, P.1, Tp. Cao L\u00e3nh, T. \u0110\u1ed3ng Th\u00e1p","BankName":"KienLong Bank","BankLogo":"\/images\/bank\/kienlong.png"},{"ID":"7442","Name":"Kienlongbank \u0110\u1ed3ng Nai ","Phone":"0251. 3918 606","Fax":"0251. 3918 616","LongLat":"","ProvinceID":"53","DistrictID":"259","Address":"S\u1ed1 184 H\u00e0 Huy Gi\u00e1p, Kp.1, P. Quy\u1ebft Th\u1eafng, Tp. Bi\u00ean H\u00f2a, T. \u0110\u1ed3ng Nai.","BankName":"KienLong Bank","BankLogo":"\/images\/bank\/kienlong.png"},{"ID":"7443","Name":"Kienlongbank C\u01b0 Kuin ","Phone":"0262. 3655 666","Fax":"0262. 3655 888","LongLat":"11.7657124,108.3657396","ProvinceID":"50","DistrictID":"219","Address":"\u0110\u1ed9i 4 Ql. 27, Bu\u00f4n Eakmar, X\u00e3 Ea Bh\u1ed1k, H. C\u01b0 Kuin, T. \u0110\u1eafk Lak","BankName":"KienLong Bank","BankLogo":"\/images\/bank\/kienlong.png"},{"ID":"7444","Name":"Kienlongbank T\u00e2n L\u1eadp ","Phone":"0262. 387 5353 ","Fax":"0262. 387 5354","LongLat":"12.7100116,108.2377519","ProvinceID":"50","DistrictID":"231","Address":"S\u1ed1 252 Ng\u00f4 Quy\u1ec1n, P.T\u00e2n An, Tp. Bu\u00f4n M\u00ea Thu\u1ed9t, T. \u0110\u1eafk L\u1eafk","BankName":"KienLong Bank","BankLogo":"\/images\/bank\/kienlong.png"},{"ID":"7445","Name":"Kienlongbank \u0110\u1eafk L\u1eafk ","Phone":"0262. 384 3236","Fax":"0262. 384 3237","LongLat":"12.6836577,108.0394835","ProvinceID":"50","DistrictID":"231","Address":"S\u1ed1 146 Ho\u00e0ng Di\u1ec7u, Tp. Bu\u00f4n Ma Thu\u1ed9t, T. \u0110\u1eafk L\u1eafk","BankName":"KienLong Bank","BankLogo":"\/images\/bank\/kienlong.png"},{"ID":"7446","Name":"Kienlongbank H\u1ea3i Ch\u00e2u","Phone":"0236. 387 1122","Fax":"0236. 387 1133","LongLat":"16.0678127,108.2166031","ProvinceID":"35","DistrictID":"91","Address":"S\u1ed1 222 H\u00f9ng V\u01b0\u01a1ng, P. H\u1ea3i Ch\u00e2u 2, Q. H\u1ea3i Ch\u00e2u, Tp. \u0110\u00e0 N\u1eb5ng","BankName":"KienLong Bank","BankLogo":"\/images\/bank\/kienlong.png"},{"ID":"7447","Name":"Kienlongbank Cai Lang ","Phone":"0236. 364 7978","Fax":"0236. 364 7977","LongLat":"16.0671019,108.207241","ProvinceID":"35","DistrictID":"95","Address":"S\u1ed1  420 L\u00ea Du\u1ea9n, P. Ch\u00ednh Gi\u00e1n, Q. Thanh Kh\u00ea, Tp. \u0110\u00e0 N\u1eb5ng","BankName":"KienLong Bank","BankLogo":"\/images\/bank\/kienlong.png"},{"ID":"7448","Name":"Kienlongbank \u0110\u00e0 N\u1eb5ng ","Phone":"0236. 625 8989 ","Fax":"0236. 625 5757","LongLat":"16.060296,108.212359","ProvinceID":"35","DistrictID":"95","Address":"S\u1ed1 158-160 Nguy\u1ec5n V\u0103n Linh, Q. Thanh Kh\u00ea, Tp. \u0110\u00e0 N\u1eb5ng","BankName":"KienLong Bank","BankLogo":"\/images\/bank\/kienlong.png"},{"ID":"7449","Name":"Kienlongbank V\u0129nh Th\u1ea1nh","Phone":"0292. 364 1992","Fax":"0292. 364 1991","LongLat":"10.0451618,105.7468535","ProvinceID":"34","DistrictID":"82","Address":"71 QL. 80, \u1ea4p V\u0129nh Qu\u1edbi, Th\u1ecb tr\u1ea5n V\u0129nh Th\u1ea1nh, Tp. C\u1ea7n Th\u01a1","BankName":"KienLong Bank","BankLogo":"\/images\/bank\/kienlong.png"},{"ID":"7450","Name":"Kienlongbank Th\u1ed1t n\u1ed1t ","Phone":"0292. 3612 100 ","Fax":"0292. 3612 102","LongLat":"10.2725016,105.5302634","ProvinceID":"34","DistrictID":"87","Address":"S\u1ed1 477 t\u1ed5 24, KV. Ph\u1ee5ng Th\u1ea1nh 1, P. Th\u1ed1t N\u1ed1t, Q. Th\u1ed1t N\u1ed1t, Tp. C\u1ea7n Th\u01a1","BankName":"KienLong Bank","BankLogo":"\/images\/bank\/kienlong.png"},{"ID":"7451","Name":"Kienlongbank \u00d4 M\u00f4n ","Phone":"0292. 366 5657","Fax":"0292. 366 5660","LongLat":"10.0451618,105.7468535","ProvinceID":"34","DistrictID":"86","Address":"S\u1ed1 969B\/6, Khu v\u1ef1c 4, P. Ch\u00e2u V\u0103n Li\u00eam, Q. \u00d4 M\u00f4n, Tp. C\u1ea7n Th\u01a1","BankName":"KienLong Bank","BankLogo":"\/images\/bank\/kienlong.png"},{"ID":"7452","Name":"Kienlongbank B\u00ecnh Th\u1ee7y ","Phone":"0292. 388 1841","Fax":"0292. 388 1840","LongLat":"10.0451618,105.7468535","ProvinceID":"34","DistrictID":"83","Address":"S\u1ed1 91 CMT8, P. An Th\u1edbi, Q. B\u00ecnh Th\u1ee7y, Tp. C\u1ea7n Th\u01a1.","BankName":"KienLong Bank","BankLogo":"\/images\/bank\/kienlong.png"},{"ID":"7453","Name":"Kienlongbank C\u00e1i R\u0103ng ","Phone":"0292. 3910 993","Fax":"0292. 3910 994","LongLat":"9.9624535,105.7354972","ProvinceID":"34","DistrictID":"84","Address":"S\u1ed1 161\/3B Qu\u1ed1c L\u1ed9 1, P. L\u00ea B\u00ecnh, Q. C\u00e1i R\u0103ng, Tp. C\u1ea7n Th\u01a1","BankName":"KienLong Bank","BankLogo":"\/images\/bank\/kienlong.png"},{"ID":"7454","Name":"Kienlongbank C\u1ea7n Th\u01a1 ","Phone":"0292. 3817 112","Fax":"0292. 3817 114","LongLat":"10.0331832,105.7840093","ProvinceID":"34","DistrictID":"85","Address":"S\u1ed1 38 - 40 \u00d0\u1ea1i L\u1ed9 H\u00f2a B\u00ecnh, P. An C\u01b0, Q. Ninh Ki\u1ec1u, Tp. C\u1ea7n Th\u01a1","BankName":"KienLong Bank","BankLogo":"\/images\/bank\/kienlong.png"},{"ID":"7455","Name":"Kienlongbank N\u0103m C\u0103n ","Phone":"0290. 387 8668","Fax":"0290. 387 8567","LongLat":"8.7697509,104.9914601","ProvinceID":"48","DistrictID":"199","Address":"S\u1ed1 02 An D\u01b0\u01a1ng V\u01b0\u01a1ng, kh\u00f3m 2, th\u1ecb tr\u1ea5n N\u0103m C\u0103n, huy\u1ec7n N\u0103m C\u0103n, t\u1ec9nh C\u00e0 Mau","BankName":"KienLong Bank","BankLogo":"\/images\/bank\/kienlong.png"},{"ID":"7456","Name":"Kienlongbank \u0110\u1ea7m D\u01a1i ","Phone":"0290. 3942 999 ","Fax":"0290. 3942 888","LongLat":"8.9935229,105.1959664","ProvinceID":"48","DistrictID":"198","Address":"S\u1ed1 04 Tr\u1ea7n V\u0103n Ph\u00fa, kh\u00f3m 4, TT. \u0110\u1ea7m D\u01a1i, H. \u0110\u1ea7m D\u01a1i, T. C\u00e0 Mau.","BankName":"KienLong Bank","BankLogo":"\/images\/bank\/kienlong.png"},{"ID":"7457","Name":"Kienlongbank C\u00e0 Mau ","Phone":"0290. 359 5999 ","Fax":"0290. 359 9777","LongLat":"9.1756897,105.1563335","ProvinceID":"48","DistrictID":"204","Address":"S\u1ed1 26 -28 Phan Ng\u1ecdc Hi\u1ec3n, P.4, Tp. C\u00e0 Mau, T. C\u00e0 Mau","BankName":"KienLong Bank","BankLogo":"\/images\/bank\/kienlong.png"},{"ID":"7458","Name":"Kienlongbank Lagi","Phone":"0252. 3730 891","Fax":"0252. 3730 892","LongLat":"10.6584301,107.7750282","ProvinceID":"47","DistrictID":"196","Address":"S\u1ed1 168 L\u00ea L\u1ee3i, P. Ph\u01b0\u1edbc H\u1ed9i, Tx. La Gi, T. B\u00ecnh Thu\u1eadn","BankName":"KienLong Bank","BankLogo":"\/images\/bank\/kienlong.png"},{"ID":"7459","Name":"Kienlongbank H\u00e0m Ti\u1ebfn ","Phone":"0252. 3730 894","Fax":"0252. 3730 895","LongLat":"10.9372713,108.2855621","ProvinceID":"47","DistrictID":"195","Address":"S\u1ed1 283 Hu\u1ef3nh Th\u00fac Kh\u00e1ng, ph\u01b0\u1eddng M\u0169i N\u00e9, th\u00e0nh ph\u1ed1 Phan Thi\u1ebft, t\u1ec9nh B\u00ecnh Thu\u1eadn","BankName":"KienLong Bank","BankLogo":"\/images\/bank\/kienlong.png"},{"ID":"7460","Name":"Kienlongbank B\u00ecnh Thu\u1eadn","Phone":"0252. 3730 888","Fax":"0252. 3730 889","LongLat":"10.9219847,108.0950712","ProvinceID":"47","DistrictID":"195","Address":"S\u1ed1 384 Tr\u1ea7n H\u01b0ng \u0110\u1ea1o, P. L\u1ea1c \u0110\u1ea1o, Tp. Phan Thi\u1ebft, T. B\u00ecnh Thu\u1eadn","BankName":"KienLong Bank","BankLogo":"\/images\/bank\/kienlong.png"},{"ID":"7461","Name":"Kienlongbank D\u0129 An ","Phone":"0274. 377 5757","Fax":"0274. 377 5656","LongLat":"10.8919446,106.7845091","ProvinceID":"45","DistrictID":"182","Address":"S\u1ed1 9\/19 Kp B\u00ecnh Minh I, Tx. D\u0129 An, T. B\u00ecnh D\u01b0\u01a1ng","BankName":"KienLong Bank","BankLogo":"\/images\/bank\/kienlong.png"},{"ID":"7462","Name":"Kienlongbank B\u1ebfn C\u00e1t ","Phone":"0274. 355 7557","Fax":"0274. 355 7556","LongLat":"11.1383407,106.6124495","ProvinceID":"45","DistrictID":"180","Address":"S\u1ed1 304 H\u00f9ng V\u01b0\u01a1ng, T\u1ed5 14, Khu ph\u1ed1 1, P. M\u1ef9 Ph\u01b0\u1edbc, Tx. B\u1ebfn C\u00e1t, T. B\u00ecnh D\u01b0\u01a1ng","BankName":"KienLong Bank","BankLogo":"\/images\/bank\/kienlong.png"},{"ID":"7463","Name":"Kienlongbank L\u00e1i Thi\u00eau ","Phone":"0274. 379.7273","Fax":"0274. 379.7272","LongLat":"10.9089559,106.7018647","ProvinceID":"45","DistrictID":"185","Address":"S\u1ed1 A62 Nguy\u1ec5n V\u0103n Ti\u1ebft, Kp. \u0110\u00f4ng T\u01b0, P. L\u00e1i Thi\u00eau, Tx. Thu\u1eadn An, T. B\u00ecnh D\u01b0\u01a1ng.","BankName":"KienLong Bank","BankLogo":"\/images\/bank\/kienlong.png"},{"ID":"7464","Name":"Kienlongbank B\u00ecnh D\u01b0\u01a1ng ","Phone":"0274. 3872 742","Fax":"0274. 3872 741","LongLat":"10.9818286,106.6563354","ProvinceID":"45","DistrictID":"186","Address":"S\u1ed1 242 Yersin, P. Ph\u00fa C\u01b0\u1eddng, Tp. Th\u1ee7 D\u1ea7u M\u1ed9t, T. B\u00ecnh D\u01b0\u01a1ng","BankName":"KienLong Bank","BankLogo":"\/images\/bank\/kienlong.png"},{"ID":"7465","Name":"Kienlongbank An Nh\u01a1n ","Phone":"0256.3635 356","Fax":"0256.3635 355","LongLat":"13.8890172,109.1134289","ProvinceID":"44","DistrictID":"170","Address":"S\u1ed1 254 Ng\u00f4 Gia T\u1ef1, P. B\u00ecnh \u0110\u1ecbnh, Tx. An Nh\u01a1n, T. B\u00ecnh \u0110\u1ecbnh","BankName":"KienLong Bank","BankLogo":"\/images\/bank\/kienlong.png"},{"ID":"7466","Name":"Kienlongbank B\u00ecnh \u0110\u1ecbnh ","Phone":"0256. 382 5566","Fax":"0256. 382 5577","LongLat":"13.772661,109.2229521","ProvinceID":"44","DistrictID":"179","Address":"S\u1ed1 98 Ph\u1ea1m H\u00f9ng, P. L\u00fd Th\u01b0\u1eddng Ki\u1ec7t, Tp. Quy Nh\u01a1n, T. B\u00ecnh \u0110\u1ecbnh","BankName":"KienLong Bank","BankLogo":"\/images\/bank\/kienlong.png"},{"ID":"7467","Name":"Kienlongbank M\u1ecf C\u00e0y Nam ","Phone":" 0275. 366 2888","Fax":"0275. 366 3888","LongLat":"10.128631,106.333073","ProvinceID":"43","DistrictID":"166","Address":"Khu ph\u1ed1 7, Th\u1ecb tr\u1ea5n M\u1ecf C\u00e0y, H. M\u1ecf C\u00e0y Nam, T. B\u1ebfn Tre.","BankName":"KienLong Bank","BankLogo":"\/images\/bank\/kienlong.png"},{"ID":"7468","Name":"Kienlongbank Ba Tri ","Phone":"0275. 376 3888","Fax":"0275. 376 2848","LongLat":"10.0425358,106.5966659","ProvinceID":"43","DistrictID":"160","Address":"S\u1ed1 4A Tr\u01b0\u01a1ng \u0110\u1ecbnh, Khu ph\u1ed1 2, Th\u1ecb tr\u1ea5n Ba Tri, H. Ba Tri, T. B\u1ebfn Tre","BankName":"KienLong Bank","BankLogo":"\/images\/bank\/kienlong.png"},{"ID":"7469","Name":"Kienlongbank B\u00ecnh \u0110\u1ea1i ","Phone":"0275. 374 2555","Fax":"0275. 374 2666","LongLat":"10.1596899,106.6998767","ProvinceID":"43","DistrictID":"161","Address":"S\u1ed1 60 \u0110\u01b0\u1eddng 30\/4, Khu ph\u1ed1 1, TT. B\u00ecnh \u0110\u1ea1i, H. B\u00ecnh \u0110\u1ea1i, T. B\u1ebfn Tre","BankName":"KienLong Bank","BankLogo":"\/images\/bank\/kienlong.png"},{"ID":"7470","Name":"Kienlongbank B\u1ebfn Tre ","Phone":"0275. 356 1268","Fax":"0275. 356 1269","LongLat":"10.2497772,106.3735914","ProvinceID":"43","DistrictID":"168","Address":"517 \u0110\u1ea1i l\u1ed9 \u0110\u1ed3ng Kh\u1edfi, Tp. B\u1ebfn Tre","BankName":"KienLong Bank","BankLogo":"\/images\/bank\/kienlong.png"},{"ID":"7471","Name":"Kienlongbank Ph\u01b0\u1edbc Long ","Phone":"0291. 358 1626","Fax":"0291. 358 1627","LongLat":"9.4006715,105.4302383","ProvinceID":"41","DistrictID":"149","Address":"\u1ea4p N\u1ed9i \u00d4, Th\u1ecb tr\u1ea5n Ph\u01b0\u1edbc Long, T. B\u1ea1c Li\u00eau","BankName":"KienLong Bank","BankLogo":"\/images\/bank\/kienlong.png"},{"ID":"7472","Name":"Kienlongbank H\u1ed3ng D\u00e2n ","Phone":"0291. 356 0866","Fax":"0291. 356 0864","LongLat":"9.5539029,105.45205","ProvinceID":"41","DistrictID":"710","Address":"Khu nh\u00e0 ph\u1ed1 6D, TTTM huy\u1ec7n H\u1ed3ng D\u00e2n, T. B\u1ea1c Li\u00eau.","BankName":"KienLong Bank","BankLogo":"\/images\/bank\/kienlong.png"}]