[{"ID":"104","Name":"PGD Ph\u00fa M\u1ef9 H\u01b0ng ","Phone":"(08) 54 122 812 ","Fax":"(08) 54 122 811","LongLat":"10.7284804,106.7055487","ProvinceID":"33","DistrictID":"69","Address":"1461 Nguy\u1ec5n V\u0103n Linh, P.T\u00e2n Phong, Q.7, TP.HCM","BankName":"DaiA Bank","BankLogo":"\/images\/bank\/dai-a.png"},{"ID":"221","Name":"PGD Nguy\u1ec5n Th\u1ecb \u0110\u1ecbnh ","Phone":"(08) 5402 7811  ","Fax":"(08) 5402 7811","LongLat":"10.777409,106.764768","ProvinceID":"33","DistrictID":"64","Address":"  519 Nguy\u1ec5n Th\u1ecb \u0110\u1ecbnh, KP1, P. C\u00e1t L\u00e1i, Q.2, TP.HCM","BankName":"DaiA Bank","BankLogo":"\/images\/bank\/dai-a.png"},{"ID":"317","Name":"PGD Ph\u00fa L\u00e2m ","Phone":"(08) 5406 2962 ","Fax":"(08) 5406 2961","LongLat":"10.7513805,106.6336709","ProvinceID":"33","DistrictID":"68","Address":"27B Kinh D\u01b0\u01a1ng V\u01b0\u01a1ng, P.12, Qu\u1eadn 6, TP.HCM","BankName":"DaiA Bank","BankLogo":"\/images\/bank\/dai-a.png"},{"ID":"369","Name":"Chi nh\u00e1nh TP. HCM ","Phone":"(08) 5405 0666 ","Fax":"(08) 5405 0627","LongLat":"10.753884,106.675517","ProvinceID":"33","DistrictID":"67","Address":"1015 Tr\u1ea7n H\u01b0ng \u0110\u1ea1o, P.5, Q.5, TP.HCM","BankName":"DaiA Bank","BankLogo":"\/images\/bank\/dai-a.png"},{"ID":"469","Name":"PGD T\u1ea1 Uy\u00ean ","Phone":"(08) 54 052 052  ","Fax":"(08) 54 052 641","LongLat":"10.7585427,106.6535032","ProvinceID":"33","DistrictID":"51","Address":"  134 T\u1ea1 Uy\u00ean, P.4, Q.11, TP.HCM","BankName":"DaiA Bank","BankLogo":"\/images\/bank\/dai-a.png"},{"ID":"561","Name":"PGD Ho\u00e0ng Di\u1ec7u ","Phone":"(08) 3943 5682 ","Fax":"(08) 3943 5681","LongLat":"10.7633069,106.7058170","ProvinceID":"33","DistrictID":"66","Address":" 1 \u0110inh L\u1ec5, P.12, Q.4, TP.HCM","BankName":"DaiA Bank","BankLogo":"\/images\/bank\/dai-a.png"},{"ID":"676","Name":"PGD Ph\u00fa Th\u1ecd ","Phone":"(08)3975 5764 ","Fax":"(08) 3975 5765","LongLat":"10.7689511,106.6518187","ProvinceID":"33","DistrictID":"51","Address":" 11-13 \u00c2u C\u01a1, P.14, Q. 11, TP.HCM","BankName":"DaiA Bank","BankLogo":"\/images\/bank\/dai-a.png"},{"ID":"853","Name":"PGD Tr\u01b0\u01a1ng \u0110\u1ecbnh ","Phone":"(08) 3933 3032  ","Fax":"(08) 3933 3031","LongLat":"10.7762288,106.6913545","ProvinceID":"33","DistrictID":"65","Address":"  13-15-17 Tr\u01b0\u01a1ng \u0110\u1ecbnh, P.6, Qu\u1eadn 3, TP.HCM","BankName":"DaiA Bank","BankLogo":"\/images\/bank\/dai-a.png"},{"ID":"943","Name":"PGD T\u00e2n Ph\u00fa ","Phone":"(08) 54 342 312  ","Fax":"(08) 54 342 310","LongLat":"10.7825156,106.6274589","ProvinceID":"33","DistrictID":"77","Address":"149 Nguy\u1ec5n S\u01a1n, P.Ph\u00fa Th\u1ea1nh, Q.T\u00e2n Ph\u00fa, TP.HCM","BankName":"DaiA Bank","BankLogo":"\/images\/bank\/dai-a.png"},{"ID":"1204","Name":"PGD \u00c2u C\u01a1 ","Phone":"(08) 5 4342 660 \/342 ","Fax":"(08) 5 4342 657","LongLat":"10.7969806,106.6380590","ProvinceID":"33","DistrictID":"76","Address":"954 \u00c2u C\u01a1, P.14, Q. T\u00e2n B\u00ecnh, TP.HCM","BankName":"DaiA Bank","BankLogo":"\/images\/bank\/dai-a.png"},{"ID":"1280","Name":"Chi nh\u00e1nh H\u00e0ng Xanh ","Phone":"(08) 3512 8644  ","Fax":"(08) 3512 8412","LongLat":"10.7997892,106.7170286","ProvinceID":"33","DistrictID":"73","Address":"  341 \u2013 343, \u0110i\u1ec7n Bi\u00ean Ph\u1ee7, P.15, Q. B\u00ecnh Th\u1ea1nh, TP. HCM","BankName":"DaiA Bank","BankLogo":"\/images\/bank\/dai-a.png"},{"ID":"1418","Name":"PGD Ho\u00e0ng Hoa Th\u00e1m ","Phone":"(08) 54 492 492 ","Fax":"(08) 54 492 492","LongLat":"10.807361,106.689367","ProvinceID":"33","DistrictID":"73","Address":"  94 Ho\u00e0ng Hoa Th\u00e1m, P.7, Q.B\u00ecnh Th\u1ea1nh, TP.HCM","BankName":"DaiA Bank","BankLogo":"\/images\/bank\/dai-a.png"},{"ID":"1636","Name":"PGD Th\u1ee7 \u0110\u1ee9c ","Phone":"(08) 5409 4256  ","Fax":"(08) 5409 4257","LongLat":"10.8496072,106.7725610","ProvinceID":"33","DistrictID":"78","Address":"  384 V\u00f5 V\u0103n Ng\u00e2n, Qu\u1eadn Th\u1ee7 \u0110\u1ee9c, TP.HCM","BankName":"DaiA Bank","BankLogo":"\/images\/bank\/dai-a.png"},{"ID":"1706","Name":"PGD G\u00f2 V\u1ea5p ","Phone":"(08) 38 312 298  ","Fax":"(08) 38 312 300","LongLat":"10.8878806,106.6015488","ProvinceID":"33","DistrictID":"47","Address":" 871 Quang Trung, P.12, Q.G\u00f2 V\u1ea5p, TP.HCM","BankName":"DaiA Bank","BankLogo":"\/images\/bank\/dai-a.png"},{"ID":"1908","Name":"PGD Linh \u0110\u00e0m ","Phone":"(04) 354 022 61 ","Fax":"(04) 354 022 60","LongLat":"20.9711729, 105.8261655","ProvinceID":"32","DistrictID":"7","Address":" Bi\u1ec7t th\u1ef1 s\u1ed1 16, L\u00f4 BT 2, Khu B\u1eafc Linh \u0110\u00e0m, P. Ho\u00e0ng Li\u1ec7t, Q. Ho\u00e0ng Mai, HN","BankName":"DaiA Bank","BankLogo":"\/images\/bank\/dai-a.png"},{"ID":"2184","Name":"PGD L\u1ea1c Trung ","Phone":"(04) 3987 8701 \/ 02  ","Fax":"(04) 3987 8700","LongLat":"21.0029618,105.8623588","ProvinceID":"32","DistrictID":"5","Address":"12-14 L\u1ea1c Trung, P. Thanh L\u01b0\u01a1ng, Q. Hai B\u00e0 Tr\u01b0ng, H\u00e0 N\u1ed9i","BankName":"DaiA Bank","BankLogo":"\/images\/bank\/dai-a.png"},{"ID":"2229","Name":"PGD Kim Li\u00ean ","Phone":"(04) 3 576 5976\/ 77 ","Fax":"0","LongLat":"21.006603,105.835491","ProvinceID":"32","DistrictID":"3","Address":"11-13 Ph\u1ed1 L\u01b0\u01a1ng \u0110\u1ecbnh C\u1ee7a, P. Kim Li\u00ean, Q. \u0110\u1ed1ng \u0110a, H\u00e0 N\u1ed9i","BankName":"DaiA Bank","BankLogo":"\/images\/bank\/dai-a.png"},{"ID":"2301","Name":"PGD Tr\u1ea7n Duy H\u01b0ng ","Phone":"(04) 6281 4222  ","Fax":"(04) 6281 4230","LongLat":"21.0101155,105.8046481","ProvinceID":"32","DistrictID":"2","Address":"34 Nguy\u1ec5n Th\u1ecb \u0110\u1ecbnh, P. Trung H\u00f2a, Q. C\u1ea7u Gi\u1ea5y, H\u00e0 N\u1ed9i","BankName":"DaiA Bank","BankLogo":"\/images\/bank\/dai-a.png"},{"ID":"2368","Name":"QTK Th\u00e1i H\u00e0 ","Phone":"(04) 627 63542  ","Fax":"(04) 627 6344.","LongLat":"21.0132580,105.8200657","ProvinceID":"0","DistrictID":"0","Address":" 53, Th\u00e1i H\u00e0, P.Trung Li\u1ec7t, Q.\u0110\u1ed1ng \u0110a, H\u00e0 N\u1ed9i","BankName":"DaiA Bank","BankLogo":"\/images\/bank\/dai-a.png"},{"ID":"2379","Name":"QTK Th\u00e1i Th\u1ecbnh ","Phone":"(04) 3 538 1046\/ 47  ","Fax":"(04) 3 538 10 44","LongLat":"21.011305,105.817914","ProvinceID":"32","DistrictID":"3","Address":" 110 Ph\u1ed1 Th\u00e1i Th\u1ecbnh, P.Trung Li\u1ec7t, Q. \u0110\u1ed1ng \u0110a, H\u00e0 N\u1ed9i","BankName":"DaiA Bank","BankLogo":"\/images\/bank\/dai-a.png"},{"ID":"2428","Name":"PGD Nguy\u1ec5n Ch\u00ed Thanh ","Phone":"(04) 3775 9747  ","Fax":"(04) 3775 9745","LongLat":"21.0162325,105.8054262","ProvinceID":"32","DistrictID":"3","Address":" 118 Nguy\u1ec5n Ch\u00ed Thanh, Q.\u0110\u1ed1ng \u0110a, H\u00e0 N\u1ed9i","BankName":"DaiA Bank","BankLogo":"\/images\/bank\/dai-a.png"},{"ID":"2483","Name":"PGD \u00d4 Ch\u1ee3 D\u1eeba ","Phone":"(04) 3514 9850  ","Fax":"(04) 3514 9853","LongLat":"21.020121,105.825245","ProvinceID":"32","DistrictID":"3","Address":" 26 Ho\u00e0ng C\u1ea7u, P. \u00d4 Ch\u1ee3 D\u1eeba, Q. \u0110\u1ed1ng \u0110a, H\u00e0 N\u1ed9i","BankName":"DaiA Bank","BankLogo":"\/images\/bank\/dai-a.png"},{"ID":"2587","Name":"CN H\u00e0 N\u1ed9i ","Phone":"(04) 3933 5373 ","Fax":"(04) 3933 5171","LongLat":"21.02287,105.843795","ProvinceID":"32","DistrictID":"6","Address":" T\u00f2a nh\u00e0 TT H\u1ed9i ngh\u1ecb C\u00f4ng \u0110o\u00e0n, 01 Y\u1ebft Ki\u00eau, P. Tr\u1ea7n H\u01b0ng \u0110\u1ea1o, Q. Ho\u00e0n Ki\u1ebfm, HN","BankName":"DaiA Bank","BankLogo":"\/images\/bank\/dai-a.png"},{"ID":"2682","Name":"PGD C\u1eeda \u0110\u00f4ng ","Phone":"(04) 3923 4888 - 3923 4096  ","Fax":"---","LongLat":"21.033555,105.846075","ProvinceID":"32","DistrictID":"6","Address":"  2A Ph\u1ed1 \u0110\u01b0\u1eddng Th\u00e0nh, P. C\u1eeda \u0110\u00f4ng, Q. Ho\u00e0n Ki\u1ebfm, H\u00e0 N\u1ed9i","BankName":"DaiA Bank","BankLogo":"\/images\/bank\/dai-a.png"},{"ID":"3008","Name":"PGD H\u00e0ng Bu\u1ed3m ","Phone":"(04) 3926 4781  ","Fax":"(04) 3926 4780","LongLat":"21.0356756,105.8516031","ProvinceID":"32","DistrictID":"6","Address":"  54 H\u00e0ng Bu\u1ed3m, Q.Ho\u00e0n Ki\u1ebfm, H\u00e0 N\u1ed9i","BankName":"DaiA Bank","BankLogo":"\/images\/bank\/dai-a.png"},{"ID":"3054","Name":"PGD M\u1ef9 \u0110\u00ecnh ","Phone":"(04) 3795 8848  ","Fax":"(04) 3795 8849","LongLat":"21.0378035,105.7717967","ProvinceID":"32","DistrictID":"2","Address":"  1 L\u00ea \u0110\u1ee9c Th\u1ecd, P. Mai D\u1ecbch, Q. C\u1ea7u Gi\u1ea5y, H\u00e0 N\u1ed9i","BankName":"DaiA Bank","BankLogo":"\/images\/bank\/dai-a.png"},{"ID":"3177","Name":"CN Th\u0103ng Long ","Phone":"(04) 6258 4179  ","Fax":"(04) 6258 4180","LongLat":"21.043461,105.818714","ProvinceID":"32","DistrictID":"23","Address":" 249A Th\u1ee5y Khu\u00ea, Q.T\u00e2y H\u1ed3, H\u00e0 N\u1ed9i","BankName":"DaiA Bank","BankLogo":"\/images\/bank\/dai-a.png"},{"ID":"3336","Name":"PGD Y\u00ean Ph\u1ee5 ","Phone":"(04) 3715 3546  ","Fax":"(04) 3715 3547","LongLat":"21.050748,105.839726","ProvinceID":"32","DistrictID":"23","Address":" 7A Y\u00ean Ph\u1ee5, Q.T\u00e2y H\u1ed3, H\u00e0 N\u1ed9i","BankName":"DaiA Bank","BankLogo":"\/images\/bank\/dai-a.png"},{"ID":"3363","Name":"PGD H\u00e0 Huy T\u1eadp ","Phone":"(04) 3698 3329 \/28 \/30 ","Fax":"(04) 3698 3331","LongLat":"21.0800230,105.9117340","ProvinceID":"32","DistrictID":"30","Address":" 91 H\u00e0 Huy T\u1eadp, H.Gia L\u00e2m, H\u00e0 N\u1ed9i","BankName":"DaiA Bank","BankLogo":"\/images\/bank\/dai-a.png"},{"ID":"3425","Name":"PGD Quang Trung ","Phone":"(04) 3355 4924 ","Fax":"(04) 3355 4921","LongLat":"21.1756082,105.8588398","ProvinceID":"32","DistrictID":"29","Address":"  573 Ph\u1ed1 Quang Trung, P.Ph\u00fa La, Q.H\u00e0 \u0110\u00f4ng, H\u00e0 N\u1ed9i","BankName":"DaiA Bank","BankLogo":"\/images\/bank\/dai-a.png"}]