[{"ID":"116","Name":"BAOVIET Bank Ph\u00fa M\u1ef9 H\u01b0ng","Phone":"028 - 5410 4771\/72","Fax":"028 - 5410 4770","LongLat":"10.7291004,106.7080947","ProvinceID":"33","DistrictID":"69","Address":"S\u1ed1 966 Nguy\u1ec5n V\u0103n Linh, ph\u01b0\u1eddng T\u00e2n Phong, qu\u1eadn 7, TP. H\u1ed3 Ch\u00ed Minh","BankName":"BAOVIET Bank","BankLogo":"\/images\/bank\/baoviet.png"},{"ID":"357","Name":"BAOVIET Bank S\u00e0i G\u00f2n","Phone":"028 - 39 260 590","Fax":"028 - 39 260 574","LongLat":"10.7660129,106.682989","ProvinceID":"33","DistrictID":"49","Address":"S\u1ed1 49 Ph\u1ea1m Vi\u1ebft Ch\u00e1nh, ph\u01b0\u1eddng Nguy\u1ec5n C\u01b0 Trinh, qu\u1eadn 1, TP. H\u1ed3 Ch\u00ed Minh","BankName":"BAOVIET Bank","BankLogo":"\/images\/bank\/baoviet.png"},{"ID":"363","Name":"BAOVIET Bank Ph\u00fa L\u00e2m","Phone":"028 - 38.170.730\/31","Fax":"028 - 3817 0729","LongLat":"10.747603,106.633912","ProvinceID":"33","DistrictID":"68","Address":"S\u1ed1 629 H\u1eadu Giang, Ph\u01b0\u1eddng 11, Qu\u1eadn 6, th\u00e0nh ph\u1ed1 H\u1ed3 Ch\u00ed Minh","BankName":"BAOVIET Bank","BankLogo":"\/images\/bank\/baoviet.png"},{"ID":"511","Name":"BAOVIET Bank An \u0110\u00f4ng","Phone":"028 - 3830 0809","Fax":"028 - 3830 0988","LongLat":"10.7597613,106.6710108","ProvinceID":"33","DistrictID":"67","Address":"97J Nguy\u1ec5n Duy D\u01b0\u01a1ng,   ph\u01b0\u1eddng 9, qu\u1eadn 5","BankName":"BAOVIET Bank","BankLogo":"\/images\/bank\/baoviet.png"},{"ID":"671","Name":"BAOVIET Bank Ng\u0169 H\u00e0nh S\u01a1n","Phone":"0236.39.39.688","Fax":"0236.39.39.588","LongLat":"10.768756,106.683544","ProvinceID":"35","DistrictID":"731","Address":"S\u1ed1 159 Ng\u0169 H\u00e0nh S\u01a1n, ph\u01b0\u1eddng B\u1eafc M\u1ef9 An, qu\u1eadn Ng\u0169 H\u00e0nh S\u01a1n, th\u00e0nh ph\u1ed1 \u0110\u00e0 N\u1eb5ng","BankName":"BAOVIET Bank","BankLogo":"\/images\/bank\/baoviet.png"},{"ID":"869","Name":"BAOVIET Bank L\u1ea1c Long Qu\u00e2n","Phone":"028 - 3975 5871","Fax":"028 - 3975 5872","LongLat":"10.7832762,106.6506622","ProvinceID":"33","DistrictID":"76","Address":"S\u1ed1 1234 L\u1ea1c Long Qu\u00e2n, ph\u01b0\u1eddng 8, qu\u1eadn T\u00e2n B\u00ecnh, th\u00e0nh ph\u1ed1 H\u1ed3 Ch\u00ed Minh","BankName":"BAOVIET Bank","BankLogo":"\/images\/bank\/baoviet.png"},{"ID":"892","Name":"BAOVIET Bank V\u0103n ph\u00f2ng \u0111\u1ea1i di\u1ec7n Th\u00e0nh ph\u1ed1 H\u1ed3 Ch\u00ed Minh","Phone":"(028) 3926 0590","Fax":"(028) 3926 0574","LongLat":"10.778338,106.700281","ProvinceID":"33","DistrictID":"49","Address":"T\u00f2a nh\u00e0 B\u1ea3o Vi\u1ec7t, s\u1ed1 233 \u0111\u01b0\u1eddng \u0110\u1ed3ng Kh\u1edfi, Qu\u1eadn 1, TP. H\u1ed3 Ch\u00ed Minh","BankName":"BAOVIET Bank","BankLogo":"\/images\/bank\/baoviet.png"},{"ID":"1268","Name":"BAOVIET Bank Ph\u00fa Nhu\u1eadn","Phone":"028 - 3997 0471","Fax":"028 - 3997 0472","LongLat":"10.7995129,106.678027","ProvinceID":"33","DistrictID":"75","Address":"74 Ho\u00e0ng V\u0103n Th\u1ee5,   Ph\u01b0\u1eddng 9, qu\u1eadn Ph\u00fa Nhu\u1eadn","BankName":"BAOVIET Bank","BankLogo":"\/images\/bank\/baoviet.png"},{"ID":"1336","Name":"BAOVIET Bank H\u00e0ng Xanh","Phone":"028 - 3551 5234","Fax":"028 - 3551 5224","LongLat":"10.8031547,106.6912133","ProvinceID":"33","DistrictID":"73","Address":"49D Phan \u0110\u0103ng L\u01b0u, ph\u01b0\u1eddng 3, qu\u1eadn B\u00ecnh Th\u1ea1nh, TP. H\u1ed3 Ch\u00ed Minh","BankName":"BAOVIET Bank","BankLogo":"\/images\/bank\/baoviet.png"},{"ID":"2098","Name":"BAOVIET Bank Th\u00e1i Nguy\u00ean","Phone":"0208 377 8888    ","Fax":"0208 365 3368","LongLat":"21.5930243,105.8354902","ProvinceID":"86","DistrictID":"595","Address":"S\u1ed1 51 Ho\u00e0ng V\u0103n Th\u1ee5, Ph\u01b0\u1eddng Phan \u0110\u00ecnh Ph\u00f9ng, Th\u00e0nh ph\u1ed1 Th\u00e1i Nguy\u00ean, T\u1ec9nh Th\u00e1i Nguy\u00ean","BankName":"BAOVIET Bank","BankLogo":"\/images\/bank\/baoviet.png"},{"ID":"2317","Name":"BAOVIET Bank H\u00e0 N\u1ed9i","Phone":"024 357 476 66","Fax":"024  357 471 36\/37","LongLat":"21.0108442,105.8369475","ProvinceID":"32","DistrictID":"3","Address":"S\u1ed1 121 Th\u00e1i H\u00e0, ph\u01b0\u1eddng Trung Li\u1ec7t, qu\u1eadn \u0110\u1ed1ng \u0110a, TP. H\u00e0 N\u1ed9i","BankName":"BAOVIET Bank","BankLogo":"\/images\/bank\/baoviet.png"},{"ID":"2444","Name":"BAOVIET Bank Tr\u1ea7n Xu\u00e2n So\u1ea1n","Phone":"024 - 39.33.57.07\/06","Fax":"024 - 32.11.54.02","LongLat":"21.0169736,105.8544945","ProvinceID":"32","DistrictID":"5","Address":"38 Tr\u1ea7n Xu\u00e2n So\u1ea1n,   Ph\u01b0\u1eddng Ng\u00f4 Th\u00ec Nh\u1eadm,   Qu\u1eadn Hai B\u00e0 Tr\u01b0ng, H\u00e0 N\u1ed9i","BankName":"BAOVIET Bank","BankLogo":"\/images\/bank\/baoviet.png"},{"ID":"2493","Name":"BAOVIET Bank B\u1eafc Ninh","Phone":"0222 3822 888","Fax":"0222 3826 468","LongLat":"21.1814287,106.0734532","ProvinceID":"42","DistrictID":"158","Address":"S\u1ed1 12A L\u00fd Th\u00e1i T\u1ed5, Ph\u01b0\u1eddng Su\u1ed1i Hoa, Th\u00e0nh ph\u1ed1  B\u1eafc Ninh, T\u1ec9nh B\u1eafc Ninh","BankName":"BAOVIET Bank","BankLogo":"\/images\/bank\/baoviet.png"},{"ID":"2498","Name":"BAOVIET Bank V\u0103n Cao","Phone":"0225. 3559.329","Fax":"0225.3559.326","LongLat":"21.0191519,105.8247274","ProvinceID":"36","DistrictID":"109","Address":"S\u1ed1 252-254 V\u0103n Cao, Ph\u01b0\u1eddng \u0110\u1eb1ng Giang, Qu\u1eadn Ng\u00f4 Quy\u1ec1n, Th\u00e0nh ph\u1ed1 H\u1ea3i Ph\u00f2ng","BankName":"BAOVIET Bank","BankLogo":"\/images\/bank\/baoviet.png"},{"ID":"2556","Name":"BAOVIET Bank T\u00f4n \u0110\u1ee9c Th\u1eafng","Phone":"024 - 35.13.42.64\/65","Fax":"024 - 35.13.42.63","LongLat":"21.020703,105.831003","ProvinceID":"32","DistrictID":"3","Address":"245 T\u00f4n \u0110\u1ee9c Th\u1eafng,   ph\u01b0\u1eddng H\u00e0ng B\u1ed9t, qu\u1eadn \u0110\u1ed1ng \u0110a","BankName":"BAOVIET Bank","BankLogo":"\/images\/bank\/baoviet.png"},{"ID":"2663","Name":"BAOVIET Bank  V\u0103n Mi\u1ebfu","Phone":"024 3732 6506","Fax":"024 3732 6508","LongLat":"21.026073,105.838269","ProvinceID":"32","DistrictID":"3","Address":"71 Ng\u00f4 S\u1ef9 Li\u00ean, qu\u1eadn \u0110\u1ed1ng \u0110a","BankName":"BAOVIET Bank","BankLogo":"\/images\/bank\/baoviet.png"},{"ID":"2788","Name":"BAOVIET Bank H\u1ed9i s\u1edf ch\u00ednh","Phone":"(84 - 24) 3928 8989","Fax":"84 - 24 - 3928 8899","LongLat":"21.02099,105.8557","ProvinceID":"32","DistrictID":"6","Address":"T\u1ea7ng 1 v\u00e0 T\u1ea7ng 5, T\u00f2a nh\u00e0 Corner Stone, , s\u1ed1 16 Phan Chu Trinh, qu\u1eadn Ho\u00e0n Ki\u1ebfm","BankName":"BAOVIET Bank","BankLogo":"\/images\/bank\/baoviet.png"},{"ID":"2813","Name":"BAOVIET Bank \u0110\u00e0o T\u1ea5n","Phone":"024 - 32.11.54.01\/00","Fax":"024 - 32.11.54.02","LongLat":"21.032521,105.809178","ProvinceID":"32","DistrictID":"1","Address":"14 \u0110\u00e0o T\u1ea5n,    ph\u01b0\u1eddng C\u1ed1ng V\u1ecb, qu\u1eadn Ba \u0110\u00ecnh.","BankName":"BAOVIET Bank","BankLogo":"\/images\/bank\/baoviet.png"},{"ID":"2961","Name":"BAOVIET Bank S\u1edf giao d\u1ecbch","Phone":"024 3795 8606  ","Fax":"024 3795 8608","LongLat":"21.0235155,105.8420039","ProvinceID":"32","DistrictID":"6","Address":"T\u00f2a nh\u00e0 Th\u1ee7 \u0110\u00f4, S\u1ed1 72 Tr\u1ea7n H\u01b0ng \u0110\u1ea1o, ph\u01b0\u1eddng Tr\u1ea7n H\u01b0ng \u0110\u1ea1o, qu\u1eadn Ho\u00e0n Ki\u1ebfm, TP. H\u00e0 N\u1ed9i","BankName":"BAOVIET Bank","BankLogo":"\/images\/bank\/baoviet.png"},{"ID":"3275","Name":"BAOVIET Bank M\u1ef9 \u0110\u00ecnh","Phone":"024 37.63.31.76\/77","Fax":"024 37.63.31.76\/7","LongLat":"21.0373302,105.7667181","ProvinceID":"32","DistrictID":"759","Address":"S\u1ed1 8 \u0111\u01b0\u1eddng Nguy\u1ec5n C\u01a1 Th\u1ea1ch, qu\u1eadn Nam T\u1eeb Li\u00eam, H\u00e0 N\u1ed9i","BankName":"BAOVIET Bank","BankLogo":"\/images\/bank\/baoviet.png"},{"ID":"3504","Name":"BAOVIET Bank Thanh Kh\u00ea","Phone":"0236.36.38.988","Fax":"0236.36.39.188","LongLat":"16.0710669,108.1973199","ProvinceID":"35","DistrictID":"95","Address":"S\u1ed1 333 Tr\u1ea7n Cao V\u00e2n, Ph\u01b0\u1eddng Xu\u00e2n H\u00e0, Qu\u1eadn Thanh Kh\u00ea, Th\u00e0nh ph\u1ed1 \u0110\u00e0 N\u1eb5ng","BankName":"BAOVIET Bank","BankLogo":"\/images\/bank\/baoviet.png"},{"ID":"3511","Name":"BAOVIET Bank B\u1ebfn Th\u1ee7y","Phone":"02383.550.828","Fax":"02383.550.727","LongLat":"18.6519073,105.7006645","ProvinceID":"72","DistrictID":"447","Address":"180 Nguy\u1ec5n Du, P. B\u1ebfn Th\u1ee7y, TP. Vinh, Ngh\u1ec7 An","BankName":"BAOVIET Bank","BankLogo":"\/images\/bank\/baoviet.png"},{"ID":"3548","Name":"BAOVIET Bank L\u00ea Ch\u00e2n","Phone":"0225 8831 825","Fax":" 0225.8831 826","LongLat":"20.844314,106.669861","ProvinceID":"36","DistrictID":"108","Address":"S\u1ed1 268 Tr\u1ea7n Nguy\u00ean H\u00e3n, Ph\u01b0\u1eddng Ni\u1ec7m Ngh\u0129a, Qu\u1eadn L\u00ea Ch\u00e2n, Th\u00e0nh ph\u1ed1 H\u1ea3i Ph\u00f2ng","BankName":"BAOVIET Bank","BankLogo":"\/images\/bank\/baoviet.png"},{"ID":"4686","Name":"BAOVIET Bank Tr\u01b0\u1eddng Thi","Phone":"02383.550.656 \/ 67 ","Fax":"02383.550.665","LongLat":"18.6758807,105.686963","ProvinceID":"72","DistrictID":"447","Address":" 87 Nguy\u1ec5n V\u0103n C\u1eeb, ph\u01b0\u1eddng Tr\u01b0\u1eddng Thi, TP. Vinh, Ngh\u1ec7 An","BankName":"BAOVIET Bank","BankLogo":"\/images\/bank\/baoviet.png"},{"ID":"4691","Name":"BAOVIET Bank H\u00e0 \u0110\u00f4ng","Phone":"024 - 325 68280\/190","Fax":"024 3256 8290","LongLat":"20.9683774,105.7728098","ProvinceID":"32","DistrictID":"4","Address":"S\u1ed1 229 Quang Trung, Qu\u1eadn H\u00e0 \u0110\u00f4ng, TP. H\u00e0 N\u1ed9i.","BankName":"BAOVIET Bank","BankLogo":"\/images\/bank\/baoviet.png"},{"ID":"4711","Name":"BAOVIET Bank L\u00ea Tr\u1ecdng T\u1ea5n","Phone":" 024 - 36.27.70.51\/53","Fax":" 024 - 36.27.70.52","LongLat":"21.0003539,105.8280842","ProvinceID":"32","DistrictID":"24","Address":"S\u1ed1 20 L\u00ea Tr\u1ecdng T\u1ea5n, Ph\u01b0\u1eddng Kh\u01b0\u01a1ng Mai, Qu\u1eadn Thanh Xu\u00e2n, Th\u00e0nh ph\u1ed1 H\u00e0 N\u1ed9i","BankName":"BAOVIET Bank","BankLogo":"\/images\/bank\/baoviet.png"},{"ID":"9774","Name":"BAOVIET Bank C\u1ea7u Gi\u1ea5y","Phone":"024-3795 8606","Fax":" 024-3795 8615","LongLat":"21.0304205,105.7844869","ProvinceID":"32","DistrictID":"2","Address":"T\u00f2a nh\u00e0 CMC, ph\u1ed1 Duy T\u00e2n, ph\u01b0\u1eddng D\u1ecbch V\u1ecdng H\u1eadu, qu\u1eadn C\u1ea7u Gi\u1ea5y, th\u00e0nh ph\u1ed1 H\u00e0 N\u1ed9i","BankName":"BAOVIET Bank","BankLogo":"\/images\/bank\/baoviet.png"},{"ID":"9800","Name":"BAOVIET Bank Ngh\u1ec7 An","Phone":"0238.3550.669","Fax":"0238.3550.699","LongLat":"18.6749877,105.6773835","ProvinceID":"72","DistrictID":"447","Address":"S\u1ed1 105 Nguy\u1ec5n Th\u1ecb Minh Khai, ph\u01b0\u1eddng L\u00ea Mao, Tp. Vinh, Ngh\u1ec7 An","BankName":"BAOVIET Bank","BankLogo":"\/images\/bank\/baoviet.png"},{"ID":"9813","Name":"BAOVIET Bank Ba \u0110\u00ecnh","Phone":"024 - 3247 4731\/32","Fax":"024 - 3247 4733","LongLat":"21.0413559,105.8164869","ProvinceID":"32","DistrictID":"1","Address":"S\u1ed1 27 V\u0103n Cao, ph\u01b0\u1eddng Li\u1ec5u Giai, qu\u1eadn Ba \u0110\u00ecnh, TP.H\u00e0 N\u1ed9i","BankName":"BAOVIET Bank","BankLogo":"\/images\/bank\/baoviet.png"},{"ID":"10384","Name":"BAOVIET Bank Qu\u1ea3ng Ninh","Phone":"02033.648.989","Fax":"02033.859.868","LongLat":"20.952942,107.040442","ProvinceID":"80","DistrictID":"536","Address":"S\u1ed1 486A \u0111\u01b0\u1eddng H\u1ea1 Long, Ph\u01b0\u1eddng B\u00e3i Ch\u00e1y, Th\u00e0nh ph\u1ed1 H\u1ea1 Long, T\u1ec9nh Qu\u1ea3ng Ninh","BankName":"BAOVIET Bank","BankLogo":"\/images\/bank\/baoviet.png"},{"ID":"10385","Name":"BAOVIET Bank \u0110\u00e0 N\u1eb5ng","Phone":"0236 353 8688","Fax":"0236 353 9988","LongLat":"16.0607819,108.2168365","ProvinceID":"35","DistrictID":"91","Address":"86-88 Nguy\u1ec5n V\u0103n Linh, Nam D\u01b0\u01a1ng, H\u1ea3i Ch\u00e2u, TP. \u0110\u00e0 N\u1eb5ng ","BankName":"BAOVIET Bank","BankLogo":"\/images\/bank\/baoviet.png"},{"ID":"10386","Name":"BAOVIET Bank Ea Kar","Phone":"02623 771 199","Fax":"02623 771 188","LongLat":"12.8093634,108.4481196","ProvinceID":"50","DistrictID":"221","Address":" S\u1ed1 206 Nguy\u1ec5n T\u1ea5t Th\u00e0nh, Th\u1ecb tr\u1ea5n Ea Kar, Huy\u1ec7n Ea Kar, T\u1ec9nh \u0110\u1eafk L\u1eafk","BankName":"BAOVIET Bank","BankLogo":"\/images\/bank\/baoviet.png"},{"ID":"10387","Name":"BAOVIET Bank B\u00ecnh D\u01b0\u01a1ng","Phone":" (0274) 3696390","Fax":"(0274) 3696391","LongLat":"10.9703528,106.6761048","ProvinceID":"45","DistrictID":"186","Address":"S\u1ed1 326 \u0110\u1ea1i l\u1ed9 B\u00ecnh D\u01b0\u01a1ng, Ph\u01b0\u1eddng Ph\u00fa H\u00f2a, Th\u00e0nh ph\u1ed1 Th\u1ee7 D\u1ea7u M\u1ed9t, ti\u0309nh Bi\u0300nh D\u01b0\u01a1ng","BankName":"BAOVIET Bank","BankLogo":"\/images\/bank\/baoviet.png"},{"ID":"10388","Name":"BAOVIET Bank C\u1ea7n Th\u01a1","Phone":"0292  3760 770","Fax":"0292 3760 775","LongLat":"10.0465383,105.7876702","ProvinceID":"34","DistrictID":"85","Address":"S\u1ed1 90-92 Tr\u1ea7n V\u0103n Kh\u00e9o, ph\u01b0\u1eddng C\u00e1i Kh\u1ebf, qu\u1eadn Ninh Ki\u1ec1u, C\u1ea7n Th\u01a1","BankName":"BAOVIET Bank","BankLogo":"\/images\/bank\/baoviet.png"},{"ID":"10389","Name":"BAOVIET Bank H\u1ea3i Ph\u00f2ng","Phone":"02253.529.966\/986","Fax":"02253.529.788","LongLat":"20.8566653,106.6994903","ProvinceID":"36","DistrictID":"109","Address":"T\u00f2a nh\u00e0 B\u1ea3o Vi\u1ec7t Nh\u00e2n Th\u1ecd H\u1ea3i Ph\u00f2ng, Khu \u0111\u00f4 th\u1ecb m\u1edbi Ng\u00e3 n\u0103m S\u00e2n bay C\u00e1t Bi, \u0111\u01b0\u1eddng L\u00ea H\u1ed3ng Phong, ph\u01b0\u1eddng \u0110\u00f4ng Kh\u00ea, qu\u1eadn Ng\u00f4 Quy\u1ec1n, th\u00e0nh ph\u1ed1 H\u1ea3i Ph\u00f2ng","BankName":"BAOVIET Bank","BankLogo":"\/images\/bank\/baoviet.png"},{"ID":"10390","Name":" BAOVIET Bank Kh\u00e1nh H\u00f2a","Phone":" 84-0258- 352 96 98","Fax":"84-0258- 352 96 99","LongLat":"12.2428349,109.194828","ProvinceID":"63","DistrictID":"354","Address":"15 Tr\u1ea7n H\u01b0ng \u0110\u1ea1o, Ph\u01b0\u1eddng L\u1ed9c Th\u1ecd, Th\u00e0nh ph\u1ed1 Nha Trang, T\u1ec9nh Kh\u00e1nh H\u00f2a.","BankName":"BAOVIET Bank","BankLogo":"\/images\/bank\/baoviet.png"},{"ID":"10391","Name":"BAOVIET Bank C\u00e1i R\u0103ng","Phone":"0292 3846 859","Fax":"0292 3846 855","LongLat":"10.0023275,105.7507401","ProvinceID":"34","DistrictID":"84","Address":"S\u1ed1 442 khu v\u1ef1c Y\u00ean H\u1ea1, ph\u01b0\u1eddng L\u00ea B\u00ecnh, qu\u1eadn C\u00e1i R\u0103ng, th\u00e0nh ph\u1ed1 C\u1ea7n Th\u01a1","BankName":"BAOVIET Bank","BankLogo":"\/images\/bank\/baoviet.png"},{"ID":"10392","Name":"BAOVIET Bank H\u1ed3ng B\u00e0ng","Phone":"0225 3786 882\/83","Fax":"0225 3786 884","LongLat":"20.8616693,106.6721789","ProvinceID":"36","DistrictID":"107","Address":"S\u1ed1 99 B\u1ea1ch \u0110\u1eb1ng, ph\u01b0\u1eddng H\u1ea1 L\u00fd, qu\u1eadn H\u1ed3ng B\u00e0ng, th\u00e0nh ph\u1ed1 H\u1ea3i Ph\u00f2ng","BankName":"BAOVIET Bank","BankLogo":"\/images\/bank\/baoviet.png"},{"ID":"10393","Name":"BAOVIET Bank H\u00f9ng V\u01b0\u01a1ng","Phone":"0236.37.47.188","Fax":"0236.35.68.588","LongLat":"16.067089,108.213059","ProvinceID":"35","DistrictID":"95","Address":"S\u1ed1 318 H\u00f9ng V\u01b0\u01a1ng, Ph\u01b0\u1eddng V\u0129nh Trung, Qu\u1eadn Thanh Kh\u00ea, Th\u00e0nh ph\u1ed1 \u0110\u00e0 N\u1eb5ng","BankName":"BAOVIET Bank","BankLogo":"\/images\/bank\/baoviet.png"},{"ID":"10394","Name":"BAOVIET Bank Bu\u00f4n H\u1ed3","Phone":"02623 772288","Fax":"02623 559955","LongLat":"","ProvinceID":"50","DistrictID":"231","Address":"S\u1ed1 553 H\u00f9ng V\u01b0\u01a1ng, Ph\u01b0\u1eddng An L\u1ea1c, Th\u1ecb x\u00e3 Bu\u00f4n H\u1ed3, T\u1ec9nh \u0110\u1eafk L\u1eafk","BankName":"BAOVIET Bank","BankLogo":"\/images\/bank\/baoviet.png"},{"ID":"10395","Name":"BAOVIET Bank B\u00ecnh \u0110\u1ecbnh","Phone":"0256 3636988","Fax":"0256 3636986","LongLat":"13.775159,109.2218988","ProvinceID":"44","DistrictID":"179","Address":"S\u1ed1 40 Nguy\u1ec5n Th\u00e1i H\u1ecdc, Ph\u01b0\u1eddng L\u00ea H\u1ed3ng Phong, Th\u00e0nh ph\u1ed1 Quy Nh\u01a1n, T\u1ec9nh B\u00ecnh \u0110\u1ecbnh","BankName":"BAOVIET Bank","BankLogo":"\/images\/bank\/baoviet.png"},{"ID":"10396","Name":"BAOVIET Bank Th\u1ed1t N\u1ed1t","Phone":"02923.851.424","Fax":"02923.851.427","LongLat":"10.3138733,105.4874382","ProvinceID":"34","DistrictID":"87","Address":"S\u1ed1 188B, Qu\u1ed1c l\u1ed9i 91, Ph\u01b0\u1eddng Th\u1ed1t N\u1ed1t, Qu\u1eadn Th\u1ed1t N\u1ed1t, Th\u00e0nh ph\u1ed1 C\u1ea7n Th\u01a1","BankName":"BAOVIET Bank","BankLogo":"\/images\/bank\/baoviet.png"},{"ID":"10397","Name":"BAOVIET Bank \u0110\u1eafk L\u1eafk","Phone":"84 -262 - 3989 989","Fax":"84 - 262 - 3939 989","LongLat":"18.6483455,105.7049923","ProvinceID":"50","DistrictID":"231","Address":"S\u1ed1 26 L\u00ea Th\u00e1nh T\u00f4ng, ph\u01b0\u1eddng Th\u1eafng L\u1ee3i, TP. Bu\u00f4n M\u00ea Thu\u1ed9t,","BankName":"BAOVIET Bank","BankLogo":"\/images\/bank\/baoviet.png"},{"ID":"10398","Name":"BAOVIET Bank Ng\u00f4 Quy\u1ec1n","Phone":"0262- 3666 677","Fax":"0262- 3666 688","LongLat":"12.6920515,108.0602561","ProvinceID":"50","DistrictID":"231","Address":"S\u1ed1 A1 Ng\u00f4 Quy\u1ec1n, ph\u01b0\u1eddng T\u00e2n An, Tp. Bu\u00f4n M\u00ea Thu\u1ed9t, \u0110\u1eafk l\u1eafk","BankName":"BAOVIET Bank","BankLogo":"\/images\/bank\/baoviet.png"},{"ID":"13451","Name":"BAOVIET Bank B\u1eafc Vinh","Phone":"02383 550 588","Fax":"2383 550 588","LongLat":"18.7072679,105.6797884","ProvinceID":"72","DistrictID":"447","Address":"Khu kinh doanh th\u01b0\u01a1ng m\u1ea1i t\u1ea1i v\u1ecb tr\u00ed KD2, T\u1ea7ng 1, Nh\u00e0 A3 thu\u1ed9c d\u1ef1 \u00e1n Khu nh\u00e0 \u1edf chung c\u01b0 ph\u00eda \u0110\u00f4ng \u0111\u1ea1i l\u1ed9 V.I. L\u00ea Nin, X\u00e3 Nghi Ph\u00fa, Th\u00e0nh ph\u1ed1 Vinh, T\u1ec9nh Ngh\u1ec7 An.","BankName":"BAOVIET Bank","BankLogo":"\/images\/bank\/baoviet.png"},{"ID":"13452","Name":"BAOVIET Bank TP. H\u1ed3 Ch\u00ed Minh","Phone":"028 3824 5303","Fax":"028 3822 7481","LongLat":"10.778338,106.700281","ProvinceID":"33","DistrictID":"49","Address":"T\u00f2a nh\u00e0 B\u1ea3o Vi\u1ec7t, S\u1ed1 233 \u0110\u1ed3ng Kh\u1edfi, qu\u1eadn 1, TP. H\u1ed3 Ch\u00ed Minh","BankName":"BAOVIET Bank","BankLogo":"\/images\/bank\/baoviet.png"},{"ID":"13453","Name":"BAOVIET Bank Kien Giang","Phone":"02973.666.618","Fax":"02973.666.617","LongLat":null,"ProvinceID":"64","DistrictID":"369","Address":"S\u1ed1 511 Nguy\u1ec5n Trung Tr\u1ef1c, ph\u01b0\u1eddng V\u0129nh L\u1ea1c, th\u00e0nh ph\u1ed1 R\u1ea1ch Gi\u00e1, t\u1ec9nh Ki\u00ean Giang","BankName":"BAOVIET Bank","BankLogo":"\/images\/bank\/baoviet.png"},{"ID":"13454","Name":"BAOVIET Bank Tr\u1ea7n N\u00e3o","Phone":"028 - 3836 0660","Fax":"028 - 3836 0663","LongLat":"10.7961813,106.7330469","ProvinceID":"33","DistrictID":"64","Address":"S\u1ed1 01 \u0111\u01b0\u1eddng 31, Khu ph\u1ed1 02, Ph\u01b0\u1eddng B\u00ecnh An, Qu\u1eadn 2, Th\u00e0nh ph\u1ed1 H\u1ed3 Ch\u00ed Minh","BankName":"BAOVIET Bank","BankLogo":"\/images\/bank\/baoviet.png"},{"ID":"13455","Name":"BAOVIET Bank Ninh Ki\u1ec1u","Phone":"02923.760.880  ","Fax":"02923.760.884","LongLat":"10.044371,105.766346","ProvinceID":"34","DistrictID":"706","Address":"S\u1ed1 381 Nguy\u1ec5n V\u0103n C\u1eeb, Ph\u01b0\u1eddng An H\u00f2a, Qu\u1eadn Ninh Ki\u1ec1u, Th\u00e0nh ph\u1ed1 C\u1ea7n Th\u01a1","BankName":"BAOVIET Bank","BankLogo":"\/images\/bank\/baoviet.png"},{"ID":"13456","Name":"BAOVIET Bank \u00c2u C\u01a1","Phone":"028 - 3948.2252","Fax":"028 - 3948.2254","LongLat":"10.7930435,106.6391575","ProvinceID":"33","DistrictID":"76","Address":"S\u1ed1 830 \u0111\u01b0\u1eddng \u00c2u C\u01a1, ph\u01b0\u1eddng 14, qu\u1eadn T\u00e2n B\u00ecnh. TP. H\u1ed3 Ch\u00ed Minh","BankName":"BAOVIET Bank","BankLogo":"\/images\/bank\/baoviet.png"},{"ID":"13457","Name":"BAOVIET Bank Nguy\u1ec5n Th\u00e1i S\u01a1n","Phone":"028 - 3921 2325\/24","Fax":"028 - 3921 2322","LongLat":"10.821103,106.683607","ProvinceID":"33","DistrictID":"74","Address":"S\u1ed1 17A2- 87 Nguy\u1ec5n Th\u00e1i S\u01a1n, ph\u01b0\u1eddng 4, qu\u1eadn G\u00f2 V\u1ea5p, th\u00e0nh ph\u1ed1 H\u1ed3 Ch\u00ed Minh ","BankName":"BAOVIET Bank","BankLogo":"\/images\/bank\/baoviet.png"}]
