[{"ID":"5822","Name":"Ngan hang Citibank N.A, Chi nhanh TP.Ho Chi Minh - ATM 8046","Phone":"08 3521 1111","Fax":"---","LongLat":"10.7931406,106.7182662","ProvinceID":"33","DistrictID":"73","Address":"So 91 duong Nguyen Huu Canh, Phuong 22","BankName":"Citibank","BankLogo":"\/images\/bank\/citi.png"},{"ID":"5823","Name":"Ngan hang Citibank N.A, Chi nhanh TP.Ho Chi Minh - ATM 8019","Phone":"08 3521 1111","Fax":"---","LongLat":"10.7573431,106.672958","ProvinceID":"33","DistrictID":"67","Address":"An Dong Plaza, So 18 duong An Duong Vuong, Phuong 9","BankName":"Citibank","BankLogo":"\/images\/bank\/citi.png"},{"ID":"5824","Name":"Ngan hang Citibank N.A, Chi nhanh TP.Ho Chi Minh - ATM 8005","Phone":"08 3521 1111","Fax":"---","LongLat":"10.8184631,106.6588245","ProvinceID":"33","DistrictID":"76","Address":"Khu vuc sanh den ga Quoc Te- Cang hang khong Tan Son Nhat","BankName":"Citibank","BankLogo":"\/images\/bank\/citi.png"},{"ID":"5825","Name":"Ngan hang Citibank N.A, Chi nhanh TP.Ho Chi Minh - ATM 8045","Phone":"08 3521 1111","Fax":"---","LongLat":"10.8184631,106.6588245","ProvinceID":"33","DistrictID":"76","Address":"Khu vuc sanh den ga Quoc Te- Cang hang khong Tan Son Nhat","BankName":"Citibank","BankLogo":"\/images\/bank\/citi.png"},{"ID":"5826","Name":"Ngan hang Citibank N.A, Chi nhanh TP.Ho Chi Minh - ATM 8036","Phone":"08 3521 1111","Fax":"---","LongLat":"10.7825112,106.6821149","ProvinceID":"33","DistrictID":"65","Address":"So 5, duong Ky Dong, Phuong Ben Nghe ","BankName":"Citibank","BankLogo":"\/images\/bank\/citi.png"},{"ID":"5827","Name":"Ngan hang Citibank N.A, Chi nhanh TP.Ho Chi Minh - ATM 8038","Phone":"08 3521 1111","Fax":"---","LongLat":"","ProvinceID":"33","DistrictID":"65","Address":"So 34-34A duong Vo Van Tan, Phuong 6 ","BankName":"Citibank","BankLogo":"\/images\/bank\/citi.png"},{"ID":"5828","Name":"Ngan hang Citibank N.A, Chi nhanh TP.Ho Chi Minh - ATM 8016","Phone":"08 3521 1111","Fax":"---","LongLat":"10.8019128,106.7647475","ProvinceID":"33","DistrictID":"64","Address":"Sieu thi Metro An PhuKhu do thi moi An Phu, An Khanh, Phuong An Phu","BankName":"Citibank","BankLogo":"\/images\/bank\/citi.png"},{"ID":"5829","Name":"Ngan hang Citibank N.A, Chi nhanh TP.Ho Chi Minh - ATM 8017","Phone":"08 3521 1111","Fax":"---","LongLat":"10.8090362,106.7324481","ProvinceID":"33","DistrictID":"64","Address":"Sieu thi Coopmart An Phu-  Villa An Phu, So 43 Thao Dien, Phuong Thao Dien","BankName":"Citibank","BankLogo":"\/images\/bank\/citi.png"},{"ID":"5830","Name":"Ngan hang Citibank N.A, Chi nhanh TP.Ho Chi Minh - ATM 8055","Phone":"08 3521 1111","Fax":"---","LongLat":"10.7421319,106.7012133","ProvinceID":"33","DistrictID":"69","Address":"So 469 duong Nguyen Huu Tho, Phuong Tan Hung","BankName":"Citibank","BankLogo":"\/images\/bank\/citi.png"},{"ID":"5831","Name":"Ngan hang Citibank N.A, Chi nhanh TP.Ho Chi Minh - ATM 8007","Phone":"08 3521 1111","Fax":"---","LongLat":"10.7318388,106.702825","ProvinceID":"33","DistrictID":"69","Address":"Nha hang Trung Hoa Thao Li, 3SH-11-1, KP Grandview, Phuong Tan Phong","BankName":"Citibank","BankLogo":"\/images\/bank\/citi.png"},{"ID":"5832","Name":"Ngan hang Citibank N.A, Chi nhanh TP.Ho Chi Minh - ATM 8047","Phone":"08 3521 1111","Fax":"---","LongLat":"10.751807,106.728337","ProvinceID":"33","DistrictID":"69","Address":"So S25-1 Sky Garden duong Nguyen Van Linh, Phuong Tan Phong","BankName":"Citibank","BankLogo":"\/images\/bank\/citi.png"},{"ID":"5833","Name":"Ngan hang Citibank N.A, Chi nhanh TP.Ho Chi Minh - May Nhan Tien Mat CDM 8058","Phone":"08 3521 1111","Fax":"---","LongLat":"10.773672,106.703237","ProvinceID":"33","DistrictID":"49","Address":"Toa nha Sunwah, 115 Nguyen Hue, Phuong Ben Nghe","BankName":"Citibank","BankLogo":"\/images\/bank\/citi.png"},{"ID":"5834","Name":"Ngan hang Citibank N.A, Chi nhanh TP.Ho Chi Minh - ATM 8057","Phone":"08 3521 1111","Fax":"---","LongLat":"10.7680372,106.6936475","ProvinceID":"33","DistrictID":"49","Address":"So 236 duong De Tham, Phuong Pham Ngu Lao ","BankName":"Citibank","BankLogo":"\/images\/bank\/citi.png"},{"ID":"5835","Name":"Ngan hang Citibank N.A, Chi nhanh TP.Ho Chi Minh - ATM 8051","Phone":"08 3521 1111","Fax":"---","LongLat":"10.7769949,106.7032997","ProvinceID":"33","DistrictID":"49","Address":"So 09 duong Cong truong Lam Son, Phuong Ben Nghe","BankName":"Citibank","BankLogo":"\/images\/bank\/citi.png"},{"ID":"5836","Name":"Ngan hang Citibank N.A, Chi nhanh TP.Ho Chi Minh - ATM 8044","Phone":"08 3521 1111","Fax":"---","LongLat":"10.7855392,106.6948545","ProvinceID":"33","DistrictID":"49","Address":"So 148 duong Hai Ba Trung, Phuong Da Kao","BankName":"Citibank","BankLogo":"\/images\/bank\/citi.png"},{"ID":"5837","Name":"Ngan hang Citibank N.A, Chi nhanh TP.Ho Chi Minh - ATM 8039","Phone":"08 3521 1111","Fax":"---","LongLat":"10.7545691,106.6783326","ProvinceID":"33","DistrictID":"49","Address":"So 152B duong Tran Hung Dao, phuong Ben Thanh","BankName":"Citibank","BankLogo":"\/images\/bank\/citi.png"},{"ID":"5838","Name":"Ngan hang Citibank N.A, Chi nhanh TP.Ho Chi Minh - ATM 8037","Phone":"08 3521 1111","Fax":"---","LongLat":"10.7756873,106.7004311","ProvinceID":"33","DistrictID":"49","Address":"So 160 duong Pasteur, Phuong Ben Nghe ","BankName":"Citibank","BankLogo":"\/images\/bank\/citi.png"},{"ID":"5839","Name":"Ngan hang Citibank N.A, Chi nhanh TP.Ho Chi Minh - ATM 8020","Phone":"08 3521 1111","Fax":"---","LongLat":"10.777925,106.7022761","ProvinceID":"33","DistrictID":"49","Address":"Toa nha Vincom, so 72 Le Thanh Ton, Phuong Ben Thanh","BankName":"Citibank","BankLogo":"\/images\/bank\/citi.png"},{"ID":"5840","Name":"Ngan hang Citibank N.A, Chi nhanh TP.Ho Chi Minh - ATM 8018","Phone":"08 3521 1111","Fax":"---","LongLat":"10.782036,106.705623","ProvinceID":"33","DistrictID":"49","Address":"Toa nha Gemadept, So 6 Le Thanh Ton, Phuong Ben Nghe","BankName":"Citibank","BankLogo":"\/images\/bank\/citi.png"},{"ID":"5841","Name":"Ngan hang Citibank N.A, Chi nhanh TP.Ho Chi Minh - ATM 8015","Phone":"08 3521 1111","Fax":"---","LongLat":"10.7735994,106.6944173","ProvinceID":"33","DistrictID":"49","Address":"Cua Nam cho Ben Thanh, Phuong Ben Thanh ","BankName":"Citibank","BankLogo":"\/images\/bank\/citi.png"},{"ID":"5842","Name":"Ngan hang Citibank N.A, Chi nhanh TP.Ho Chi Minh - ATM 8014","Phone":"08 3521 1111","Fax":"---","LongLat":"10.766824,106.6926988","ProvinceID":"33","DistrictID":"49","Address":"Cua hang Circle K Bui Vien, So 139 duong Bui Vien, Phuong Pham Ngu Lao","BankName":"Citibank","BankLogo":"\/images\/bank\/citi.png"},{"ID":"5843","Name":"Ngan hang Citibank N.A, Chi nhanh TP.Ho Chi Minh - ATM 8013","Phone":"08 3521 1111","Fax":"---","LongLat":"","ProvinceID":"33","DistrictID":"49","Address":"Cua hang Circle K Le Lai, So 44 duong Le Lai, Phuong Ben Thanh","BankName":"Citibank","BankLogo":"\/images\/bank\/citi.png"},{"ID":"5844","Name":"Ngan hang Citibank N.A, Chi nhanh TP.Ho Chi Minh - ATM 8012","Phone":"08 3521 1111","Fax":"---","LongLat":"10.773672,106.703237","ProvinceID":"33","DistrictID":"49","Address":"Toa nha Sunwah, 115 Nguyen Hue, Phuong Ben Nghe","BankName":"Citibank","BankLogo":"\/images\/bank\/citi.png"},{"ID":"5845","Name":"Ngan hang Citibank N.A, Chi nhanh TP.Ho Chi Minh - ATM 8011","Phone":"08 3521 1111","Fax":"---","LongLat":"10.773672,106.703237","ProvinceID":"33","DistrictID":"49","Address":"Mat duong Ton That Thiep, Toa nha Sunwah, 115 Nguyen Hue, Phuong Ben Nghe","BankName":"Citibank","BankLogo":"\/images\/bank\/citi.png"},{"ID":"5846","Name":"Ngan hang Citibank N.A, Chi nhanh TP.Ho Chi Minh - ATM 8010","Phone":"08 3521 1111","Fax":"---","LongLat":"10.775828,106.7029837","ProvinceID":"33","DistrictID":"49","Address":"So 161 Dong Khoi, Phuong Ben Nghe","BankName":"Citibank","BankLogo":"\/images\/bank\/citi.png"},{"ID":"5847","Name":"Ngan hang Citibank N.A, Chi nhanh Ha Noi - ATM 8049","Phone":"08 3521 1111","Fax":"---","LongLat":"","ProvinceID":"32","DistrictID":"7","Address":"Km 9- Quoc lo 1A (Trong khuon vien Nha may Cong ty ABB Viet Nam)","BankName":"Citibank","BankLogo":"\/images\/bank\/citi.png"},{"ID":"5848","Name":"Ngan hang Citibank N.A, Chi nhanh Ha Noi - ATM 8034","Phone":"08 3521 1111","Fax":"---","LongLat":"21.0640172,105.8277776","ProvinceID":"32","DistrictID":"23","Address":"So 51, Xuan Dieu, Quang An","BankName":"Citibank","BankLogo":"\/images\/bank\/citi.png"},{"ID":"5849","Name":"Ngan hang Citibank N.A, Chi nhanh Ha Noi - ATM 8031","Phone":"08 3521 1111","Fax":"---","LongLat":"21.0270609,105.8194896","ProvinceID":"32","DistrictID":"1","Address":"Cong ty lien doanh khach san TNHH Hanoi HOTEL - D8 Giang Vo","BankName":"Citibank","BankLogo":"\/images\/bank\/citi.png"},{"ID":"5850","Name":"Ngan hang Citibank N.A, Chi nhanh Ha Noi - ATM 8032","Phone":"08 3521 1111","Fax":"---","LongLat":"21.021784,105.8182829","ProvinceID":"32","DistrictID":"1","Address":"6B Lang Ha, phuong Thanh Cong","BankName":"Citibank","BankLogo":"\/images\/bank\/citi.png"},{"ID":"5851","Name":"Ngan hang Citibank N.A, Chi nhanh Ha Noi - ATM 8024","Phone":"08 3521 1111","Fax":"---","LongLat":"21.0364968,105.7856248","ProvinceID":"32","DistrictID":"2","Address":"Toa nha IPH, So 241 pho Xuan Thuy ","BankName":"Citibank","BankLogo":"\/images\/bank\/citi.png"},{"ID":"5852","Name":"Ngan hang Citibank N.A, Chi nhanh Ha Noi - ATM 8023","Phone":"08 3521 1111","Fax":"---","LongLat":"21.0110643,105.8479115","ProvinceID":"32","DistrictID":"6","Address":"So 01 Hoa Lu","BankName":"Citibank","BankLogo":"\/images\/bank\/citi.png"},{"ID":"5853","Name":"Ngan hang Citibank N.A, Chi nhanh Ha Noi - ATM 8059","Phone":"08 3521 1111","Fax":"---","LongLat":"21.0082468,105.8114685","ProvinceID":"32","DistrictID":"6","Address":"So 33, Duong Phu Doan","BankName":"Citibank","BankLogo":"\/images\/bank\/citi.png"},{"ID":"5854","Name":"Ngan hang Citibank N.A, Chi nhanh Ha Noi - ATM 8025","Phone":"08 3521 1111","Fax":"---","LongLat":"21.031972,105.853954","ProvinceID":"32","DistrictID":"6","Address":"So 11, Hang Dau, phuong Hang Bac","BankName":"Citibank","BankLogo":"\/images\/bank\/citi.png"},{"ID":"5855","Name":"Ngan hang Citibank N.A, Chi nhanh Ha Noi - ATM 8022","Phone":"08 3521 1111","Fax":"---","LongLat":"21.025147,105.8557051","ProvinceID":"32","DistrictID":"6","Address":"Toa nha International Center, 17 Ngo Quyen","BankName":"Citibank","BankLogo":"\/images\/bank\/citi.png"},{"ID":"5856","Name":"Ngan hang Citibank N.A, Chi nhanh Ha Noi - ATM 8021","Phone":"08 3521 1111","Fax":"---","LongLat":"10.797998,106.697855","ProvinceID":"32","DistrictID":"6","Address":"So 07 Dinh Tien Hoang ","BankName":"Citibank","BankLogo":"\/images\/bank\/citi.png"},{"ID":"5857","Name":"Ngan hang Citibank N.A, Chi nhanh Ha Noi - ATM 8009","Phone":"08 3521 1111","Fax":"---","LongLat":"21.025147,105.8557051","ProvinceID":"32","DistrictID":"6","Address":"Toa nha International Center, 34 Trang Tien","BankName":"Citibank","BankLogo":"\/images\/bank\/citi.png"},{"ID":"5858","Name":"Ngan hang Citibank N.A, Chi nhanh Ha Noi - ATM 8008","Phone":"08 3521 1111","Fax":"---","LongLat":"21.2187149,105.8041709","ProvinceID":"32","DistrictID":"37","Address":"Cang hang khong quoc te Noi Bai ","BankName":"Citibank","BankLogo":"\/images\/bank\/citi.png"}]