[{"ID":"303","Name":"Chi nh\u00e1nh B\u00ecnh T\u00e2y","Phone":"(028) 39 691 031 \u2013 (028) 39 696 649","Fax":"(028) 39 697 198","LongLat":"10.750991,106.650327","ProvinceID":"33","DistrictID":"68","Address":"144-144A H\u1eadu Giang, Ph\u01b0\u1eddng 6, Qu\u1eadn 6, TPHCM","BankName":"Nam A Bank","BankLogo":"\/images\/bank\/nam-a.png"},{"ID":"504","Name":"Chi nh\u00e1nh An \u0110\u00f4ng:","Phone":"(84-28) 3 8307 177 \u2013 3 8350 090","Fax":"(84-28) 3 8354 889","LongLat":"10.757552,106.673221","ProvinceID":"33","DistrictID":"67","Address":"11 An D\u01b0\u01a1ng V\u01b0\u01a1ng, Qu\u1eadn 5, TP.HCM","BankName":"Nam A Bank","BankLogo":"\/images\/bank\/nam-a.png"},{"ID":"581","Name":"Ph\u00f2ng giao d\u1ecbch Kh\u00e1nh H\u1ed9i","Phone":"(84-28) 3 943 5157 - 3 943 5158","Fax":"(84-28) 3 943 5159","LongLat":"10.764787,106.705714","ProvinceID":"33","DistrictID":"66","Address":"66 Ho\u00e0ng Di\u1ec7u, Ph\u01b0\u1eddng 12, Qu\u1eadn 4, TP.HCM","BankName":"Nam A Bank","BankLogo":"\/images\/bank\/nam-a.png"},{"ID":"692","Name":"Chi nh\u00e1nh H\u00e0m Nghi:","Phone":"(84-28) 3 8299 408","Fax":"(84-28) 3 9309 571","LongLat":"10.7707323,106.7009783","ProvinceID":"33","DistrictID":"49","Address":"97 Bis H\u00e0m Nghi, P. Nguy\u1ec5n Th\u00e1i B\u00ecnh, Qu\u1eadn 1, TP.HCM","BankName":"Nam A Bank","BankLogo":"\/images\/bank\/nam-a.png"},{"ID":"777","Name":"Ph\u00f2ng giao d\u1ecbch B\u1ebfn Th\u00e0nh:","Phone":"(028) 3 823 1625","Fax":"(028) 3 827 7470","LongLat":"10.7722974,106.6944980","ProvinceID":"33","DistrictID":"49","Address":"265 L\u00fd T\u1ef1 Tr\u1ecdng,Ph\u01b0\u1eddng B\u1ebfn Th\u00e0nh, Qu\u1eadn 1, TP.HCM","BankName":"Nam A Bank","BankLogo":"\/images\/bank\/nam-a.png"},{"ID":"833","Name":"V\u0103n ph\u00f2ng n\u1ed9i b\u1ed9","Phone":"(84-28) 3822 2706 - (84-28) 3824 6311","Fax":"(84-28) 3930 9562 - (84-8) 3930 9563","LongLat":"10.77498,106.689371","ProvinceID":"33","DistrictID":"65","Address":"141 V\u00f5 V\u0103n T\u1ea7n, Qu\u1eadn 3, Tp. H\u1ed3 Ch\u00ed Minh","BankName":"Nam A Bank","BankLogo":"\/images\/bank\/nam-a.png"},{"ID":"845","Name":"H\u1ed8I S\u1ede ","Phone":"84-28) 3929 6699","Fax":"(84-28) 3929 6688","LongLat":"10.7756929,106.6850536","ProvinceID":"33","DistrictID":"65","Address":"201 \u2013 203 C\u00e1ch M\u1ea1ng Th\u00e1ng T\u00e1m, P.4, Qu\u1eadn 3 TP.HCM","BankName":"Nam A Bank","BankLogo":"\/images\/bank\/nam-a.png"},{"ID":"1007","Name":"Ph\u00f2ng giao d\u1ecbch T\u00e2n Ph\u00fa","Phone":"(84-28) 3 9735 339 \u2013 3 9735 340","Fax":"(84-28) 3 9735 341","LongLat":"10.785748,106.636875","ProvinceID":"33","DistrictID":"77","Address":"572 (88D) L\u0169y B\u00e1n B\u00edch, Ph\u01b0\u1eddng H\u00f2a Th\u1ea1nh, Qu\u1eadn T\u00e2n Ph\u00fa, TP.HCM","BankName":"Nam A Bank","BankLogo":"\/images\/bank\/nam-a.png"},{"ID":"1010","Name":"Ph\u00f2ng giao d\u1ecbch T\u00e2n B\u00ecnh","Phone":"(028) 6293 5972 - (028) 3975 2658","Fax":"(028) 6293 5973","LongLat":"10.787511,106.649005","ProvinceID":"33","DistrictID":"76","Address":"1007 L\u1ea1c Long Qu\u00e2n, Ph\u01b0\u1eddng 11, Qu\u1eadn T\u00e2n B\u00ecnh, TP.HCM","BankName":"Nam A Bank","BankLogo":"\/images\/bank\/nam-a.png"},{"ID":"1062","Name":"Ph\u00f2ng giao d\u1ecbch Qu\u1eadn 2:","Phone":"(84-28) 3 7436 093 \u2013 3 7437 214","Fax":"(84-28) 3 7436 094","LongLat":"10.7886126,106.7565965","ProvinceID":"33","DistrictID":"64","Address":"319 Nguy\u1ec5n Duy Trinh, Ph\u01b0\u1eddng B\u00ecnh Tr\u01b0ng T\u00e2y, Qu\u1eadn 2, TP.HCM","BankName":"Nam A Bank","BankLogo":"\/images\/bank\/nam-a.png"},{"ID":"1124","Name":"Chi nh\u00e1nh T\u00e2n \u0110\u1ecbnh:","Phone":"(84-28) 3 8484 257 \u2013 3 8483 694","Fax":"(84-28) 3 8438 655","LongLat":"10.791363,106.688842","ProvinceID":"33","DistrictID":"49","Address":"190 Bis Tr\u1ea7n Quang Kh\u1ea3i, Qu\u1eadn 1, TP.HCM","BankName":"Nam A Bank","BankLogo":"\/images\/bank\/nam-a.png"},{"ID":"1158","Name":"Chi nh\u00e1nh Th\u1ecb Ngh\u00e8","Phone":"(84-28) 3 8408 757 - 3 8408 758","Fax":"(84-28) 3 5140 282","LongLat":"10.794112,106.7089979","ProvinceID":"33","DistrictID":"73","Address":"36A X\u00f4 Vi\u1ebft Ngh\u1ec7 T\u0129nh, Qu\u1eadn B\u00ecnh Th\u1ea1nh, TP.HCM","BankName":"Nam A Bank","BankLogo":"\/images\/bank\/nam-a.png"},{"ID":"1273","Name":"Ph\u00f2ng giao d\u1ecbch V\u0103n Th\u00e1nh","Phone":"(84-28) 3 5127 116 \u2013 3 5127 118","Fax":"(84-28) 3 5127 120","LongLat":"10.7995468,106.7173934","ProvinceID":"33","DistrictID":"73","Address":"600 \u0110i\u1ec7n Bi\u00ean Ph\u1ee7, Ph\u01b0\u1eddng 22, Qu\u1eadn B\u00ecnh Th\u1ea1nh, TP.HCM","BankName":"Nam A Bank","BankLogo":"\/images\/bank\/nam-a.png"},{"ID":"1495","Name":"Ph\u00f2ng giao d\u1ecbch G\u00f2 V\u1ea5p","Phone":"(028) 3894 3107","Fax":"(028) 3985 3556","LongLat":"10.8212033,106.6841662","ProvinceID":"33","DistrictID":"74","Address":"13-15 Nguy\u1ec5n V\u0103n Nghi, Ph\u01b0\u1eddng 7, Qu\u1eadn G\u00f2 V\u1ea5p, TP.HCM","BankName":"Nam A Bank","BankLogo":"\/images\/bank\/nam-a.png"},{"ID":"1554","Name":"Chi nh\u00e1nh Quang Trung","Phone":"(84-28) 3 9895 031 \u2013 3 9894 339","Fax":"(84-28) 3 9895 037","LongLat":"10.836903,106.660071","ProvinceID":"33","DistrictID":"74","Address":"169 Quang Trung, Qu\u1eadn G\u00f2 V\u1ea5p, TP.HCM","BankName":"Nam A Bank","BankLogo":"\/images\/bank\/nam-a.png"},{"ID":"1573","Name":"Ph\u00f2ng giao d\u1ecbch B\u00ecnh Ch\u00e1nh","Phone":"(84-28) 3784 0203 - 3784 0204","Fax":"---","LongLat":"10.7221957,106.7019036","ProvinceID":"33","DistrictID":"48","Address":"KL23-KL25 Khu Bi\u1ec7t Th\u1ef1 Kim Long, Ph\u00e2n Khu 5, Nguy\u1ec5n H\u1eefu Th\u1ecd, X\u00e3 Ph\u01b0\u1edbc Ki\u1ec3n, Huy\u1ec7n Nh\u00e0 B\u00e8, TP.HCM","BankName":"Nam A Bank","BankLogo":"\/images\/bank\/nam-a.png"},{"ID":"1660","Name":"Ph\u00f2ng giao d\u1ecbch Th\u1ee7 \u0110\u1ee9c","Phone":"(84-28) 3 8964 650 \u2013 3 8969 971","Fax":"(84-28) 3 8969 974","LongLat":"10.8525102,106.7546278","ProvinceID":"33","DistrictID":"78","Address":"733 Kha V\u1ea1n C\u00e2n, Ph\u01b0\u1eddng Linh T\u00e2y, Qu\u1eadn Th\u1ee7 \u0110\u1ee9c, TP.HCM","BankName":"Nam A Bank","BankLogo":"\/images\/bank\/nam-a.png"},{"ID":"1679","Name":"Ph\u00f2ng giao d\u1ecbch X\u00f3m M\u1edbi:","Phone":"(028) 3916 5549 , 3916 5551","Fax":"(028) 3 916 5552","LongLat":"10.85073,106.6628462","ProvinceID":"33","DistrictID":"74","Address":"5\/4 - 1036 L\u00ea \u0110\u1ee9c Th\u1ecd, Ph\u01b0\u1eddng 13, Qu\u1eadn G\u00f2 v\u1ea5p, TP.HCM","BankName":"Nam A Bank","BankLogo":"\/images\/bank\/nam-a.png"},{"ID":"1707","Name":"Ph\u00f2ng giao d\u1ecbch H\u00f3c M\u00f4n:","Phone":" (028) 3710 6108","Fax":" (028) 3710 6108","LongLat":"10.8881993,106.5982096","ProvinceID":"33","DistrictID":"47","Address":"26 L\u00ea Th\u1ecb H\u00e0, khu ph\u1ed1 8, th\u1ecb tr\u1ea5n H\u00f3c M\u00f4n, TP. H\u1ed3 Ch\u00ed Minh","BankName":"Nam A Bank","BankLogo":"\/images\/bank\/nam-a.png"},{"ID":"1926","Name":"Ph\u00f2ng giao d\u1ecbch C\u1ea7u Gi\u1ea5y","Phone":"(024) 3311 7799","Fax":"(024)33 11 77 69","LongLat":"20.9728606,105.7787651","ProvinceID":"32","DistrictID":"2","Address":"140 Trung K\u00ednh, Ph\u01b0\u1eddng Y\u00ean H\u00f2a, Qu\u1eadn C\u1ea7u Gi\u1ea5y, TP H\u00e0 N\u1ed9i","BankName":"Nam A Bank","BankLogo":"\/images\/bank\/nam-a.png"},{"ID":"2168","Name":"Ph\u00f2ng giao d\u1ecbch \u0110\u1ed3ng T\u00e2m","Phone":"(024) 3628 3955","Fax":"(024) 3628 3966","LongLat":"21.0018150,105.8447850","ProvinceID":"32","DistrictID":"5","Address":"S\u1ed1 52 \u2013 54 L\u00ea Thanh Ngh\u1ecb, Ph\u01b0\u1eddng B\u00e1ch Khoa, Qu\u1eadn Hai B\u00e0 Tr\u01b0ng, Th\u00e0nh ph\u1ed1 H\u00e0 N\u1ed9i","BankName":"Nam A Bank","BankLogo":"\/images\/bank\/nam-a.png"},{"ID":"2422","Name":"Chi Nh\u00e1nh H\u00e0 N\u1ed9i","Phone":"(0224) 3771 2909 -0046 -0324 -2882 -(024)3747.8431","Fax":"(024) 3771.2998","LongLat":"21.0160923,105.8052867","ProvinceID":"32","DistrictID":"3","Address":"S\u1ed1 413 Kim M\u00e3, Ph\u01b0\u1eddng Ng\u1ecdc Kh\u00e1nh, Qu\u1eadn Ba \u0110\u00ecnh, H\u00e0 N\u1ed9i","BankName":"Nam A Bank","BankLogo":"\/images\/bank\/nam-a.png"},{"ID":"2676","Name":"Ph\u00f2ng giao d\u1ecbch Ba \u0110\u00ecnh","Phone":" (024) 3843 3261","Fax":"(024) 3823 6385","LongLat":"21.036514,105.814738","ProvinceID":"32","DistrictID":"1","Address":"14 Li\u1ec5u Giai, Qu\u1eadn Ba \u0110\u00ecnh, TP H\u00e0 N\u1ed9i","BankName":"Nam A Bank","BankLogo":"\/images\/bank\/nam-a.png"},{"ID":"2693","Name":"Ph\u00f2ng giao d\u1ecbch \u0110\u00f4ng \u0110\u00f4","Phone":"(84-24) 3 747 8368","Fax":"(84-24)3 747 8367","LongLat":"21.028138,105.839305","ProvinceID":"32","DistrictID":"3","Address":"S\u1ed1 40, Ph\u1ed1 T\u00f4n \u0110\u1ee9c Th\u1eafng, Qu\u1eadn \u0110\u1ed1ng \u0110a, Th\u00e0nh ph\u1ed1 H\u00e0 N\u1ed9i","BankName":"Nam A Bank","BankLogo":"\/images\/bank\/nam-a.png"},{"ID":"2866","Name":"Ph\u00f2ng giao d\u1ecbch Th\u0103ng Long:","Phone":"(024) 3754 5855","Fax":"(024) 3754 5856","LongLat":"21.035285,105.80395","ProvinceID":"32","DistrictID":"2","Address":"26 Nguy\u1ec5n V\u0103n Huy\u00ean (k\u00e9o d\u00e0i), ph\u01b0\u1eddng Quan Hoa, qu\u1eadn C\u1ea7u Gi\u1ea5y, TP. H\u00e0 N\u1ed9i","BankName":"Nam A Bank","BankLogo":"\/images\/bank\/nam-a.png"},{"ID":"2985","Name":"Ph\u00f2ng giao d\u1ecbch \u0110\u1ed3ng Xu\u00e2n:","Phone":"(84-24) 3 8280 643 \u2013 3 9233 318","Fax":"(84-24) 3 8280 643","LongLat":"21.0348094,105.8471024","ProvinceID":"32","DistrictID":"6","Address":"52 H\u00e0ng G\u00e0, Qu\u1eadn Ho\u00e0n Ki\u1ebfm, H\u00e0 N\u1ed9i","BankName":"Nam A Bank","BankLogo":"\/images\/bank\/nam-a.png"},{"ID":"10407","Name":"PGD Thu\u1eadn An","Phone":"(0274) 3.724.068 - 3.724.069","Fax":"(0274) 3.724.067","LongLat":"","ProvinceID":"45","DistrictID":"185","Address":"85 Nguy\u1ec5n V\u0103n Ti\u1ebft, Khu ph\u1ed1 \u0110\u00f4ng T\u01b0, Ph\u01b0\u1eddng L\u00e1i Thi\u00eau, Th\u1ecb x\u00e3 Thu\u1eadn An, T\u1ec9nh B\u00ecnh D\u01b0\u01a1ng","BankName":"Nam A Bank","BankLogo":"\/images\/bank\/nam-a.png"},{"ID":"10408","Name":"PGD B\u1ebfn C\u00e1t","Phone":"(0274) 3585 168","Fax":"(0274) 3585 167","LongLat":"11.1421196,106.6031371","ProvinceID":"45","DistrictID":"180","Address":"Qu\u1ed1c l\u1ed9 13, T\u1ed5 05, KP 4, Ph\u01b0\u1eddng M\u1ef9 Ph\u01b0\u1edbc, TX. B\u1ebfn C\u00e1t, T. B\u00ecnh D\u01b0\u01a1ng.","BankName":"Nam A Bank","BankLogo":"\/images\/bank\/nam-a.png"},{"ID":"10409","Name":"Chi nh\u00e1nh B\u00ecnh D\u01b0\u01a1ng","Phone":"(84-274) 3 830 365","Fax":"(84-274) 3 842 108","LongLat":"","ProvinceID":"45","DistrictID":"749","Address":"309 \u0110\u1ea1i l\u1ed9 B\u00ecnh D\u01b0\u01a1ng, Khu ph\u1ed1 12, Ph\u01b0\u1eddng Ch\u00e1nh Ngh\u0129a, TP. Th\u1ee7 D\u1ea7u M\u1ed9t, T\u1ec9nh B\u00ecnh D\u01b0\u01a1ng","BankName":"Nam A Bank","BankLogo":"\/images\/bank\/nam-a.png"},{"ID":"10410","Name":"Ph\u00f2ng giao d\u1ecbch B\u1ed3ng S\u01a1n","Phone":"84-256) 3 661 775 \u2013 3 661 669","Fax":"(84-256) 3 661 677","LongLat":"14.4307124,109.0170499","ProvinceID":"44","DistrictID":"172","Address":"315 Quang Trung, Th\u1ecb tr\u1ea5n B\u1ed3ng S\u01a1n, Huy\u1ec7n Ho\u00e0i Nh\u01a1n, t\u1ec9nh B\u00ecnh \u0110\u1ecbnh","BankName":"Nam A Bank","BankLogo":"\/images\/bank\/nam-a.png"},{"ID":"10411","Name":"Ph\u00f2ng giao d\u1ecbch An Nh\u01a1n","Phone":"(84-256) 3 736 336 \u2013 3 635449","Fax":"(0256) 373 6337","LongLat":"13.8897466,109.1130314","ProvinceID":"44","DistrictID":"170","Address":"138 Tr\u1ea7n Ph\u00fa, Ph\u01b0\u1eddng B\u00ecnh \u0110\u1ecbnh, Th\u1ecb x\u00e3 An Nh\u01a1n, T\u1ec9nh B\u00ecnh \u0110\u1ecbnh","BankName":"Nam A Bank","BankLogo":"\/images\/bank\/nam-a.png"},{"ID":"10412","Name":"Ph\u00f2ng giao d\u1ecbch Ch\u1ee3 L\u1edbn","Phone":"(0256) 381 3632 - (0256) 381 1632","Fax":"(0256) 381 3634","LongLat":"13.775541,109.2298977","ProvinceID":"44","DistrictID":"179","Address":"147-149 Phan B\u1ed9i Ch\u00e2u, Ph\u01b0\u1eddng Tr\u1ea7n H\u01b0ng \u0110\u1ea1o, TP Quy Nh\u01a1n, T\u1ec9nh B\u00ecnh \u0110\u1ecbnh","BankName":"Nam A Bank","BankLogo":"\/images\/bank\/nam-a.png"},{"ID":"10413","Name":"Chi nh\u00e1nh Quy Nh\u01a1n","Phone":"(84-256) 3 525 854 \u2013 3 525 848","Fax":"(84-256) 3 525 877","LongLat":"","ProvinceID":"44","DistrictID":"179","Address":"SR18 - SR19, Trung t\u00e2m th\u01b0\u01a1ng m\u1ea1i Quy Nh\u01a1n , 07 Nguy\u1ec5n T\u1ea5t Th\u00e0nh, Th\u00e0nh ph\u1ed1 Quy Nh\u01a1n, T\u1ec9nh B\u00ecnh \u0110\u1ecbnh","BankName":"Nam A Bank","BankLogo":"\/images\/bank\/nam-a.png"},{"ID":"10414","Name":"Ph\u00f2ng giao d\u1ecbch B\u00ecnh Long","Phone":"(0271) 368 3739","Fax":"(0271)368 3738","LongLat":"11.64494,106.6143944","ProvinceID":"46","DistrictID":"701","Address":"86-88-90 Nguy\u1ec5n Hu\u1ec7, Khu ph\u1ed1 Ph\u00fa Ngh\u0129a, Ph\u01b0\u1eddng Ph\u00fa \u0110\u1ee9c, Th\u1ecb x\u00e3 B\u00ecnh Long, T\u1ec9nh B\u00ecnh Ph\u01b0\u1edbc","BankName":"Nam A Bank","BankLogo":"\/images\/bank\/nam-a.png"},{"ID":"10415","Name":"Ph\u00f2ng giao d\u1ecbch Ch\u01a1n Th\u00e0nh","Phone":"(84-271) 3 660 235 \u2013 3 660 236","Fax":"(84-271) 3 660 237","LongLat":"11.438829,106.6173415","ProvinceID":"46","DistrictID":"702","Address":"\u0110\u01b0\u1eddng N1, \u1ea5p Trung L\u1ee3i, Th\u1ecb tr\u1ea5n Ch\u01a1n Th\u00e0nh, Huy\u1ec7n Ch\u01a1n Th\u00e0nh, T\u1ec9nh B\u00ecnh Ph\u01b0\u1edbc","BankName":"Nam A Bank","BankLogo":"\/images\/bank\/nam-a.png"},{"ID":"10416","Name":"\tPh\u00f2ng giao d\u1ecbch Ph\u01b0\u1edbc B\u00ecnh","Phone":"(84-271) 3 773 325","Fax":"(84-271) 3 773 327","LongLat":"11.8175989,106.9889904","ProvinceID":"46","DistrictID":"698","Address":"S\u1ed1 177, Khu ph\u1ed1 6, Ph\u01b0\u1eddng Long Ph\u01b0\u1edbc, Th\u1ecb x\u00e3 Ph\u01b0\u1edbc Long, T\u1ec9nh B\u00ecnh Ph\u01b0\u1edbc","BankName":"Nam A Bank","BankLogo":"\/images\/bank\/nam-a.png"},{"ID":"10417","Name":"Chi nh\u00e1nh B\u00ecnh Ph\u01b0\u1edbc","Phone":"(84-271) 3 888 235 \u2013 3 888 236","Fax":"(84-271) 3 888 237","LongLat":"11.5325408,106.8879789","ProvinceID":"46","DistrictID":"704","Address":"123 \u0110\u01b0\u1eddng H\u00f9ng V\u01b0\u01a1ng, Ph\u01b0\u1eddng T\u00e2n B\u00ecnh, Th\u1ecb x\u00e3 \u0110\u1ed3ng Xo\u00e0i, T\u1ec9nh B\u00ecnh Ph\u01b0\u1edbc","BankName":"Nam A Bank","BankLogo":"\/images\/bank\/nam-a.png"},{"ID":"10418","Name":"PGD Thanh Kh\u00ea","Phone":"(84-236) 3813 888","Fax":"(84-236) 3813 887","LongLat":"16.066018,108.189137","ProvinceID":"35","DistrictID":"95","Address":"435 \u0110i\u1ec7n Bi\u00ean Ph\u1ee7, Q.Thanh Kh\u00ea, TP.\u0110\u00e0 N\u1eb5ng","BankName":"Nam A Bank","BankLogo":"\/images\/bank\/nam-a.png"},{"ID":"10419","Name":"Ph\u00f2ng giao d\u1ecbch S\u01a1n Tr\u00e0","Phone":"(84-236) 626 2728","Fax":"---","LongLat":"16.0622034,108.2342034","ProvinceID":"35","DistrictID":"94","Address":"983 Ng\u00f4 Quy\u1ec1n, Qu\u1eadn S\u01a1n Tr\u00e0, \u0110\u00e0 N\u1eb5ng","BankName":"Nam A Bank","BankLogo":"\/images\/bank\/nam-a.png"},{"ID":"10420","Name":"Ph\u00f2ng giao d\u1ecbch L\u00ea Du\u1ea9n","Phone":"(84-236) 3 63 6555","Fax":"(84-236)  3 636 556","LongLat":"16.0714903,108.2216735","ProvinceID":"35","DistrictID":"91","Address":"21 L\u00ea Du\u1ea9n, ph\u01b0\u1eddng H\u1ea3i Ch\u00e2u 1, qu\u1eadn H\u1ea3i Ch\u00e2u, TP. \u0110\u00e0 N\u1eb5ng","BankName":"Nam A Bank","BankLogo":"\/images\/bank\/nam-a.png"},{"ID":"10421","Name":"Chi nh\u00e1nh \u0110\u00e0 N\u1eb5ng","Phone":"(84-236) 3 818 444 \u2013 3 584 570 \u2013 3 584 571","Fax":" (84-236) 3 584 569","LongLat":"16.0602004,108.2135693","ProvinceID":"35","DistrictID":"91","Address":"65-67 Nguy\u1ec5n V\u0103n Linh, Qu\u1eadn H\u1ea3i Ch\u00e2u, Th\u00e0nh ph\u1ed1 \u0110\u00e0 N\u1eb5ng","BankName":"Nam A Bank","BankLogo":"\/images\/bank\/nam-a.png"},{"ID":"10422","Name":"Ph\u00f2ng giao d\u1ecbch Ninh H\u00f2a","Phone":"(84-258) 6 265 560","Fax":"(84-258) 6 265 579","LongLat":"12.4924134,109.1256952","ProvinceID":"63","DistrictID":"351","Address":"10 Nguy\u1ec5n Hu\u1ec7, Ph\u01b0\u1eddng Ninh Hi\u1ec7p, Th\u1ecb x\u00e3 Ninh H\u00f2a, t\u1ec9nh Kh\u00e1nh H\u00f2a","BankName":"Nam A Bank","BankLogo":"\/images\/bank\/nam-a.png"},{"ID":"10423","Name":"Ph\u00f2ng giao d\u1ecbch V\u1ea1n Ninh","Phone":" (84-258) 3 911 740 \u2013 2 246 467","Fax":" (84-258)  3 911 741","LongLat":"12.6985635,109.2265885","ProvinceID":"63","DistrictID":"353","Address":"60 H\u00f9ng V\u01b0\u01a1ng, Th\u1ecb tr\u1ea5n V\u1ea1n Gi\u00e3, Huy\u1ec7n V\u1ea1n Ninh, T\u1ec9nh Kh\u00e1nh H\u00f2a","BankName":"Nam A Bank","BankLogo":"\/images\/bank\/nam-a.png"},{"ID":"10424","Name":"Ph\u00f2ng giao d\u1ecbch Tr\u1ea7n Ph\u00fa","Phone":"(84-258) 6254 135","Fax":"(84-258) 625 4132","LongLat":"12.248055,109.1960028","ProvinceID":"63","DistrictID":"354","Address":"GF.10-13\/B-C Nha Trang Center, s\u1ed1 20 Tr\u1ea7n Ph\u00fa, Ph\u01b0\u1eddng L\u1ed9c Th\u1ecd, TP Nha Trang, Kh\u00e1nh H\u00f2a","BankName":"Nam A Bank","BankLogo":"\/images\/bank\/nam-a.png"},{"ID":"10425","Name":"Ph\u00f2ng giao d\u1ecbch B\u00ecnh T\u00e2n","Phone":" (84-258) 6 253099 \u2013 3 731 117","Fax":" (84-258) 6 253099","LongLat":"12.2169245,109.1983198","ProvinceID":"63","DistrictID":"354","Address":"Chung c\u01b0 312 D\u00e3 T\u01b0\u1ee3ng, TP.Nha Trang, T\u1ec9nh Kh\u00e1nh H\u00f2a","BankName":"Nam A Bank","BankLogo":"\/images\/bank\/nam-a.png"},{"ID":"10426","Name":"Ph\u00f2ng giao d\u1ecbch Ch\u1ee3 \u0110\u1ea7m","Phone":" (84-258) 3 820 548 \u2013 3 818 869","Fax":" (84-258) 382 0593","LongLat":"12.2533357,109.1924193","ProvinceID":"63","DistrictID":"354","Address":"61 Phan B\u1ed9i Ch\u00e2u, Ph\u01b0\u1eddng X\u01b0\u01a1ng Hu\u00e2n, TP.Nha Trang, T\u1ec9nh Kh\u00e1nh H\u00f2a","BankName":"Nam A Bank","BankLogo":"\/images\/bank\/nam-a.png"},{"ID":"10427","Name":"Chi nh\u00e1nh Nha Trang","Phone":" (84-258) 3 824 009","Fax":" (84-258) 3 824 600","LongLat":"12.2483519,109.1855868","ProvinceID":"63","DistrictID":"354","Address":"66 Th\u00e1i Nguy\u00ean, TP.Nha Trang, T\u1ec9nh Kh\u00e1nh H\u00f2a","BankName":"Nam A Bank","BankLogo":"\/images\/bank\/nam-a.png"},{"ID":"10428","Name":"Chi nh\u00e1nh L\u00e2m \u0110\u1ed3ng","Phone":"(0263) 86 48 68","Fax":"(0263) 88 58 68","LongLat":"11.543862,107.8039342","ProvinceID":"67","DistrictID":"684","Address":"452M Tr\u1ea7n Ph\u00fa, Ph\u01b0\u1eddng 2, TP B\u1ea3o L\u1ed9c, t\u1ec9nh L\u00e2m \u0110\u1ed3ng","BankName":"Nam A Bank","BankLogo":"\/images\/bank\/nam-a.png"},{"ID":"10429","Name":"Chi nh\u00e1nh T\u00e2y Ninh","Phone":"(0276) 3618555 - (066) 3893893","Fax":"(0276) 3619555","LongLat":"11.310795,106.1029911","ProvinceID":"84","DistrictID":"580","Address":"473 C\u00e1ch M\u1ea1ng Th\u00e1ng T\u00e1m, Khu ph\u1ed1 6, Ph\u01b0\u1eddng 3, TP. T\u00e2y Ninh, T\u1ec9nh T\u00e2y Ninh","BankName":"Nam A Bank","BankLogo":"\/images\/bank\/nam-a.png"},{"ID":"10430","Name":"Chi nh\u00e1nh Ninh Thu\u1eadn","Phone":"(0259) 6250 888","Fax":"(0259) 6250 666","LongLat":"11.5655958,108.9997839","ProvinceID":"74","DistrictID":"464","Address":"S\u1ed1 40 \u0111\u01b0\u1eddng 16 th\u00e1ng 4, Ph\u01b0\u1eddng T\u1ea5n T\u00e0i, Th\u00e0nh ph\u1ed1 Phan Rang \u2013 Th\u00e1p Ch\u00e0m, T\u1ec9nh Ninh Thu\u1eadn","BankName":"Nam A Bank","BankLogo":"\/images\/bank\/nam-a.png"},{"ID":"10431","Name":"Chi nh\u00e1nh V\u0169ng T\u00e0u","Phone":"(0254) 381 66 99","Fax":"(0254) 381 67 68","LongLat":"10.3541699,107.0862267","ProvinceID":"38","DistrictID":"127","Address":"151 L\u00ea H\u1ed3ng Phong, Ph\u01b0\u1eddng 8, Th\u00e0nh ph\u1ed1 V\u0169ng T\u00e0u, T\u1ec9nh B\u00e0 R\u1ecba \u2013 V\u0169ng T\u00e0u","BankName":"Nam A Bank","BankLogo":"\/images\/bank\/nam-a.png"},{"ID":"10432","Name":"Chi nh\u00e1nh \u0110\u1ed3ng Nai","Phone":"(0251) 394 63 63 - (0251) 381 81 85","Fax":" (0251) 382 68 27","LongLat":"10.9476253,106.8312997","ProvinceID":"53","DistrictID":"259","Address":"298, Khu d\u00e2n c\u01b0 \u0111\u01b0\u1eddng Vo\u0303 Thi\u0323 Sa\u0301u, khu ph\u1ed1 7, Ph\u01b0\u1eddng Th\u00f4\u0301ng Nh\u00e2\u0301t, Th\u00e0nh ph\u1ed1 Bi\u00ean Hoa\u0300, ti\u0309nh \u0110\u00f4\u0300ng Nai","BankName":"Nam A Bank","BankLogo":"\/images\/bank\/nam-a.png"},{"ID":"10433","Name":"Chi nh\u00e1nh B\u1ebfn Tre","Phone":"(0275) 3 54 54 81 - (075) 3 54 54 82","Fax":" (0275) 3 54 54 83","LongLat":"10.2498228,106.3732365","ProvinceID":"43","DistrictID":"168","Address":"67C \u0110\u1ea1i l\u1ed9 \u0110\u1ed3ng Kh\u1edfi, Ph\u01b0\u1eddng Ph\u00fa Kh\u01b0\u01a1ng, Th\u00e0nh ph\u1ed1 B\u1ebfn Tre, t\u1ec9nh B\u1ebfn Tre","BankName":"Nam A Bank","BankLogo":"\/images\/bank\/nam-a.png"},{"ID":"10434","Name":"CN C\u1ea7n Th\u01a1","Phone":"(0292) 364 6877","Fax":"(0292) 364 6889","LongLat":"","ProvinceID":"34","DistrictID":"85","Address":"Vincom Xu\u00e2n Kh\u00e1nh \u2013 209 \u0110\u01b0\u1eddng 30\/4, P.Xu\u00e2n Kh\u00e1nh, Q.Ninh Ki\u1ec1u, C\u1ea7n Th\u01a1","BankName":"Nam A Bank","BankLogo":"\/images\/bank\/nam-a.png"},{"ID":"10435","Name":"CN Ph\u00fa Th\u1ecd","Phone":"(0210) 3898 .996","Fax":"---","LongLat":"21.3150314,105.3922194","ProvinceID":"75","DistrictID":"476","Address":"1498 \u0110\u1ea1i l\u1ed9 H\u00f9ng V\u01b0\u01a1ng, ph\u01b0\u1eddng Gia C\u1ea9m, TP. Vi\u1ec7t Tr\u00ec, t\u1ec9nh Ph\u00fa Th\u1ecd","BankName":"Nam A Bank","BankLogo":"\/images\/bank\/nam-a.png"},{"ID":"10436","Name":"Chi nh\u00e1nh \u0110\u1eafk L\u1eafk","Phone":"(0262) 3555155 \u2013 (0262) 3551515","Fax":"---","LongLat":"12.6849564,108.0413572","ProvinceID":"50","DistrictID":"231","Address":"166-168-170 L\u00ea H\u1ed3ng Phong, Ph\u01b0\u1eddng Th\u00e0nh C\u00f4ng, TP. Bu\u00f4n Ma Thu\u1ed9t, T\u1ec9nh \u0110\u1eafk L\u1eafk","BankName":"Nam A Bank","BankLogo":"\/images\/bank\/nam-a.png"},{"ID":"10437","Name":"CN Ki\u00ean Giang","Phone":"(0297) 3556 667","Fax":"(0297) 355 6669","LongLat":"10.0126757,105.0837637","ProvinceID":"64","DistrictID":"369","Address":"78 Tr\u1ea7n Ph\u00fa, P.V\u0129nh Thanh, TP.R\u1ea1ch Gi\u00e1, Ki\u00ean Giang","BankName":"Nam A Bank","BankLogo":"\/images\/bank\/nam-a.png"}]
